$GPRMC,235958.000,A,5814.4411,N,15934.8091,W,9.45,11.19,050617,,,D*4E
$SDDBS,76.71,f,23.38,M,12.79,F
$GPGGA,235959.000,5814.4436,N,15934.8081,W,2,08,1.1,10.9,M,16.2,M,2.0,0000*53
$GPGSA,M,3,25,29,02,31,12,06,14,51,,,,,1.8,1.1,1.4*3A
$SDDBS,76.79,f,23.41,M,12.80,F
$GPRMC,235959.000,A,5814.4436,N,15934.8081,W,9.44,11.47,050617,,,D*41
$SDDBS,76.86,f,23.43,M,12.81,F
$SDDBS,76.91,f,23.44,M,12.82,F
$GPGGA,000000.000,5814.4462,N,15934.8071,W,2,08,1.1,10.7,M,16.2,M,2.0,0000*52
$GPGSA,M,3,25,29,02,31,12,06,14,51,,,,,1.8,1.1,1.4*3A
$GPRMC,000000.000,A,5814.4462,N,15934.8071,W,9.46,11.48,060617,,,D*40
$SDDBS,76.69,f,23.38,M,12.78,F
$GPGGA,000001.000,5814.4487,N,15934.8061,W,2,08,1.1,10.5,M,16.2,M,3.0,0000*5A
$GPGSA,M,3,25,29,02,31,12,06,14,51,,,,,1.8,1.1,1.4*3A
$SDDBS,76.82,f,23.41,M,12.80,F
$SDDBS,76.61,f,23.35,M,12.77,F
$GPRMC,000001.000,A,5814.4487,N,15934.8061,W,9.49,11.14,060617,,,D*4D
$GPGGA,000002.000,5814.4513,N,15934.8052,W,2,08,1.1,10.2,M,16.2,M,4.0,0000*55
$GPGSA,M,3,25,29,02,31,12,06,14,51,,,,,1.8,1.1,1.4*3A
$GPGSV,3,1,12,25,82,162,34,29,51,224,36,02,47,087,49,31,42,296,48*7F
$SDDBS,76.72,f,23.38,M,12.79,F
$SDDBS,76.53,f,23.33,M,12.76,F
$GPGSV,3,2,12,12,40,111,49,06,20,040,51,14,18,265,44,51,10,123,43*7B
$GPGSV,3,3,12,23,00,004,25,24,02,165,33,26,01,288,41,32,07,247,44*7B
$GPRMC,000002.000,A,5814.4513,N,15934.8052,W,9.50,10.62,060617,,,D*4A
$GPGGA,000003.000,5814.4539,N,15934.8042,W,2,08,1.1,10.1,M,16.2,M,2.0,0000*58
$GPGSA,M,3,25,29,02,31,12,06,14,51,,,,,1.8,1.1,1.4*3A
$SDDBS,76.62,f,23.36,M,12.77,F
$GPRMC,000003.000,A,5814.4539,N,15934.8042,W,9.58,10.37,060617,,,D*4A
$SDDBS,76.39,f,23.28,M,12.73,F
$GPGGA,000004.000,5814.4564,N,15934.8033,W,2,08,1.1,9.9,M,16.2,M,2.0,0000*61
$GPGSA,M,3,25,29,02,31,12,06,14,51,,,,,1.8,1.1,1.4*3A
$SDDBS,76.87,f,23.43,M,12.81,F
$GPRMC,000004.000,A,5814.4564,N,15934.8033,W,9.58,10.58,060617,,,D*4A
$SDDBS,76.77,f,23.40,M,12.80,F
$SDDBS,76.73,f,23.39,M,12.79,F
$GPGGA,000005.000,5814.4590,N,15934.8023,W,2,08,1.1,9.9,M,16.2,M,2.0,0000*6A
$GPGSA,M,3,25,29,02,31,12,06,14,51,,,,,1.8,1.1,1.4*3A
$GPRMC,000005.000,A,5814.4590,N,15934.8023,W,9.54,11.05,060617,,,D*44
$SDDBS,76.70,f,23.38,M,12.78,F
$GPGGA,000006.000,5814.4615,N,15934.8014,W,2,08,1.1,9.8,M,16.2,M,3.0,0000*63
$GPGSA,M,3,25,29,02,31,12,06,14,51,,,,,1.8,1.1,1.4*3A
$SDDBS,76.93,f,23.45,M,12.82,F
$GPRMC,000006.000,A,5814.4615,N,15934.8014,W,9.50,11.10,060617,,,D*4D
$SDDBS,76.86,f,23.43,M,12.81,F
$GPGGA,000007.000,5814.4641,N,15934.8004,W,2,08,1.1,9.7,M,16.2,M,4.0,0000*6A
$GPGSA,M,3,25,29,02,31,12,06,14,51,,,,,1.8,1.1,1.4*3A
$GPGSV,3,1,12,25,82,162,34,29,51,224,32,02,47,087,49,31,42,296,47*74
$SDDBS,76.95,f,23.45,M,12.82,F
$SDDBS,76.82,f,23.41,M,12.80,F
$GPGSV,3,2,12,12,40,111,48,06,20,040,50,14,18,265,45,51,10,123,43*7A
$GPGSV,3,3,12,23,00,004,23,24,02,165,34,26,01,288,41,32,07,247,44*7A
$GPRMC,000007.000,A,5814.4641,N,15934.8004,W,9.53,10.99,060617,,,D*4F
$GPGGA,000008.000,5814.4667,N,15934.7994,W,2,08,1.1,9.5,M,16.2,M,5.0,0000*6D
$GPGSA,M,3,25,29,02,31,12,06,14,51,,,,,1.8,1.1,1.4*3A
$SDDBS,76.82,f,23.41,M,12.80,F
$SDDBS,76.59,f,23.34,M,12.76,F
$GPRMC,000008.000,A,5814.4667,N,15934.7994,W,9.57,10.63,060617,,,D*4A
$GPGGA,000009.000,5814.4693,N,15934.7985,W,2,08,1.1,9.4,M,16.2,M,2.0,0000*61
$GPGSA,M,3,25,29,02,31,12,06,14,51,,,,,1.8,1.1,1.4*3A
$SDDBS,76.66,f,23.37,M,12.78,F
$GPRMC,000009.000,A,5814.4693,N,15934.7985,W,9.49,10.30,060617,,,D*49
$SDDBS,76.64,f,23.36,M,12.77,F
$SDDBS,76.67,f,23.37,M,12.78,F
$GPGGA,000010.000,5814.4718,N,15934.7975,W,2,08,1.1,9.2,M,16.2,M,2.0,0000*62
$GPGSA,M,3,25,29,02,31,12,06,14,51,,,,,1.8,1.1,1.4*3A
$SDDBS,76.69,f,23.38,M,12.78,F
$GPRMC,000010.000,A,5814.4718,N,15934.7975,W,9.42,10.39,060617,,,D*4E
$GPGGA,000011.000,5814.4744,N,15934.7966,W,2,08,1.1,9.0,M,16.2,M,2.0,0000*6A
$GPGSA,M,3,25,29,02,31,12,06,14,51,,,,,1.8,1.1,1.4*3A
$SDDBS,76.55,f,23.33,M,12.76,F
$GPRMC,000011.000,A,5814.4744,N,15934.7966,W,9.44,10.43,060617,,,D*4F
$SDDBS,76.78,f,23.40,M,12.80,F
$GPGGA,000012.000,5814.4769,N,15934.7957,W,2,08,1.1,8.8,M,16.2,M,3.0,0000*6C
$GPGSA,M,3,25,29,02,31,12,06,14,51,,,,,1.8,1.1,1.4*3A
$GPGSV,3,1,12,25,82,162,28,29,51,224,28,02,47,087,48,31,42,296,47*73
$SDDBS,76.53,f,23.33,M,12.75,F
$SDDBS,76.56,f,23.33,M,12.76,F
$GPGSV,3,2,12,12,40,111,49,06,20,040,49,14,18,265,44,51,10,123,44*75
$GPGSV,3,3,12,23,00,004,27,24,02,165,36,26,01,288,41,32,07,247,44*7C
$GPRMC,000012.000,A,5814.4769,N,15934.7957,W,9.40,10.61,060617,,,D*45
$GPGGA,000013.000,5814.4795,N,15934.7948,W,2,08,1.1,8.7,M,16.2,M,4.0,0000*68
$GPGSA,M,3,25,29,02,31,12,06,14,51,,,,,1.8,1.1,1.4*3A
$SDDBS,76.72,f,23.39,M,12.79,F
$SDDBS,77.10,f,23.50,M,12.85,F
$GPRMC,000013.000,A,5814.4795,N,15934.7948,W,9.42,10.77,060617,,,D*4C
$GPGGA,000014.000,5814.4820,N,15934.7939,W,2,08,1.1,8.4,M,16.2,M,5.0,0000*6A
$GPGSA,M,3,25,29,02,31,12,06,14,51,,,,,1.8,1.1,1.4*3A
$SDDBS,76.55,f,23.33,M,12.76,F
$SDDBS,76.47,f,23.31,M,12.75,F
$SDDBS,76.61,f,23.35,M,12.77,F
$GPRMC,000014.000,A,5814.4820,N,15934.7939,W,9.44,10.65,060617,,,D*49
$GPGGA,000015.000,5814.4846,N,15934.7929,W,2,08,1.1,8.2,M,16.2,M,2.0,0000*6B
$GPGSA,M,3,25,29,02,31,12,06,14,51,,,,,1.8,1.1,1.4*3A
$SDDBS,76.53,f,23.33,M,12.76,F
$GPRMC,000015.000,A,5814.4846,N,15934.7929,W,9.48,10.99,060617,,,D*46
$GPGGA,000016.000,5814.4872,N,15934.7919,W,2,08,1.1,8.0,M,16.2,M,2.0,0000*6E
$GPGSA,M,3,25,29,02,31,12,06,14,51,,,,,1.8,1.1,1.4*3A
$SDDBS,76.54,f,23.33,M,12.76,F
$GPRMC,000016.000,A,5814.4872,N,15934.7919,W,9.52,11.36,060617,,,D*4E
$SDDBS,76.90,f,23.44,M,12.82,F
$GPGGA,000017.000,5814.4898,N,15934.7908,W,2,08,1.1,7.9,M,16.2,M,2.0,0000*6D
$GPGSA,M,3,25,29,02,31,12,06,14,51,,,,,1.8,1.1,1.4*3A
$GPGSV,3,1,12,25,82,162,29,29,51,224,33,02,47,087,49,31,42,296,48*76
$SDDBS,76.54,f,23.33,M,12.76,F
$SDDBS,76.70,f,23.38,M,12.78,F
$GPGSV,3,2,12,12,40,111,50,06,20,040,49,14,18,265,43,51,10,123,44*7A
$GPGSV,3,3,12,23,00,004,31,24,02,165,39,26,01,288,40,32,07,247,45*74
$GPRMC,000017.000,A,5814.4898,N,15934.7908,W,9.53,11.49,060617,,,D*42
$GPGGA,000018.000,5814.4924,N,15934.7898,W,2,08,1.1,7.7,M,16.2,M,3.0,0000*63
$GPGSA,M,3,25,29,02,31,12,06,14,51,,,,,1.8,1.1,1.4*3A
$SDDBS,76.52,f,23.32,M,12.75,F
$GPRMC,000018.000,A,5814.4924,N,15934.7898,W,9.59,11.53,060617,,,D*42
$SDDBS,76.54,f,23.33,M,12.76,F
$GPGGA,000019.000,5814.4949,N,15934.7888,W,2,08,1.1,7.6,M,16.2,M,4.0,0000*6E
$GPGSA,M,3,25,29,02,31,12,06,14,51,,,,,1.8,1.1,1.4*3A
$SDDBS,76.85,f,23.42,M,12.81,F
$GPRMC,000019.000,A,5814.4949,N,15934.7888,W,9.52,11.53,060617,,,D*42
$SDDBS,77.04,f,23.48,M,12.84,F
$SDDBS,76.97,f,23.46,M,12.83,F
$GPGGA,000020.000,5814.4975,N,15934.7877,W,2,08,1.1,7.6,M,16.2,M,5.0,0000*6A
$GPGSA,M,3,25,29,02,31,12,06,14,51,,,,,1.8,1.1,1.4*3A
$SDDBS,76.73,f,23.39,M,12.79,F
$GPRMC,000020.000,A,5814.4975,N,15934.7877,W,9.51,11.84,060617,,,D*4E
$GPGGA,000021.000,5814.5000,N,15934.7867,W,2,08,1.1,7.5,M,16.2,M,2.0,0000*64
$GPGSA,M,3,25,29,02,31,12,06,14,51,,,,,1.8,1.1,1.4*3A
$SDDBS,76.54,f,23.33,M,12.76,F
$SDDBS,76.62,f,23.35,M,12.77,F
$GPRMC,000021.000,A,5814.5000,N,15934.7867,W,9.45,11.68,060617,,,D*43
$GPGGA,000022.000,5814.5025,N,15934.7857,W,2,08,1.1,7.5,M,16.2,M,2.0,0000*63
$GPGSA,M,3,25,29,02,31,12,06,14,51,,,,,1.8,1.1,1.4*3A
$GPGSV,3,1,12,25,82,162,29,29,51,224,40,02,47,087,48,31,42,296,47*7C
$SDDBS,76.54,f,23.33,M,12.76,F
$SDDBS,76.82,f,23.41,M,12.80,F
$GPGSV,3,2,12,12,40,111,50,06,20,040,50,14,18,265,41,51,10,123,44*70
$GPGSV,3,3,12,23,00,004,33,24,02,165,40,26,01,288,38,32,07,247,44*76
$GPRMC,000022.000,A,5814.5025,N,15934.7857,W,9.37,11.89,060617,,,D*4E
$GPGGA,000023.000,5814.5050,N,15934.7847,W,2,08,1.1,7.4,M,16.2,M,2.0,0000*60
$GPGSA,M,3,25,29,02,31,12,06,14,51,,,,,1.8,1.1,1.4*3A
$SDDBS,76.65,f,23.36,M,12.77,F
$GPRMC,000023.000,A,5814.5050,N,15934.7847,W,9.43,11.80,060617,,,D*46
$SDDBS,76.47,f,23.31,M,12.74,F
$GPGGA,000024.000,5814.5074,N,15934.7837,W,2,08,1.1,7.3,M,16.2,M,3.0,0000*60
$GPGSA,M,3,25,29,02,31,12,06,14,51,,,,,1.8,1.1,1.4*3A
$SDDBS,76.43,f,23.29,M,12.74,F
$GPRMC,000024.000,A,5814.5074,N,15934.7837,W,9.40,11.81,060617,,,D*42
$SDDBS,76.74,f,23.39,M,12.79,F
$SDDBS,76.49,f,23.31,M,12.75,F
$GPGGA,000025.000,5814.5099,N,15934.7827,W,2,08,1.1,7.3,M,16.2,M,2.0,0000*62
$GPGSA,M,3,25,29,02,31,12,06,14,51,,,,,1.8,1.1,1.4*3A
$SDDBS,76.48,f,23.31,M,12.75,F
$GPRMC,000025.000,A,5814.5099,N,15934.7827,W,9.37,11.99,060617,,,D*48
$GPGGA,000026.000,5814.5124,N,15934.7817,W,2,08,1.1,7.2,M,16.2,M,3.0,0000*65
$GPGSA,M,3,25,29,02,31,12,06,14,51,,,,,1.8,1.1,1.4*3A
$SDDBS,76.48,f,23.31,M,12.75,F
$GPRMC,000026.000,A,5814.5124,N,15934.7817,W,9.39,12.20,060617,,,D*40
$SDDBS,76.38,f,23.28,M,12.73,F
$GPGGA,000027.000,5814.5149,N,15934.7806,W,2,08,1.1,7.1,M,16.2,M,2.0,0000*6D
$GPGSA,M,3,25,29,02,31,12,06,14,51,,,,,1.8,1.1,1.4*3A
$GPGSV,3,1,12,25,82,162,27,29,51,224,41,02,47,087,48,31,42,296,47*73
$SDDBS,76.34,f,23.27,M,12.72,F
$SDDBS,76.55,f,23.33,M,12.76,F
$GPGSV,3,2,12,12,40,111,50,06,20,040,49,14,18,265,41,51,10,123,42*7E
$GPGSV,3,3,12,23,00,004,38,24,02,165,39,26,01,288,32,32,07,247,44*79
$GPRMC,000027.000,A,5814.5149,N,15934.7806,W,9.46,12.26,060617,,,D*44
$GPGGA,000028.000,5814.5175,N,15934.7795,W,2,08,1.1,7.0,M,16.2,M,2.0,0000*69
$GPGSA,M,3,25,29,02,31,12,06,14,51,,,,,1.8,1.1,1.4*3A
$SDDBS,76.33,f,23.27,M,12.72,F
$SDDBS,76.49,f,23.31,M,12.75,F
$GPRMC,000028.000,A,5814.5175,N,15934.7795,W,9.45,12.55,060617,,,D*46
$GPGGA,000029.000,5814.5200,N,15934.7784,W,2,08,1.1,7.0,M,16.2,M,2.0,0000*69
$GPGSA,M,3,25,29,02,31,12,06,14,51,,,,,1.8,1.1,1.4*3A
$SDDBS,76.32,f,23.26,M,12.72,F
$GPRMC,000029.000,A,5814.5200,N,15934.7784,W,9.46,12.89,060617,,,D*44
$SDDBS,76.35,f,23.27,M,12.72,F
$SDDBS,76.38,f,23.28,M,12.73,F
$GPGGA,000030.000,5814.5225,N,15934.7772,W,2,08,1.1,6.9,M,16.2,M,3.0,0000*66
$GPGSA,M,3,25,29,02,31,12,06,14,51,,,,,1.8,1.1,1.4*3A
$SDDBS,77.08,f,23.49,M,12.85,F
$GPRMC,000030.000,A,5814.5225,N,15934.7772,W,9.49,12.99,060617,,,D*4C
$GPGGA,000031.000,5814.5251,N,15934.7760,W,2,08,1.1,6.9,M,16.2,M,4.0,0000*60
$GPGSA,M,3,25,29,02,31,12,06,14,51,,,,,1.8,1.1,1.4*3A
$SDDBS,76.54,f,23.33,M,12.76,F
$GPRMC,000031.000,A,5814.5251,N,15934.7760,W,9.50,13.05,060617,,,D*41
$SDDBS,76.50,f,23.32,M,12.75,F
$GPGGA,000032.000,5814.5275,N,15934.7750,W,2,08,1.1,7.0,M,16.2,M,2.0,0000*68
$GPGSA,M,3,25,29,02,31,12,06,14,51,,,,,1.8,1.1,1.4*3A
$GPGSV,3,1,12,25,82,160,31,29,52,224,41,02,47,086,49,31,42,296,46*74
$SDDBS,76.57,f,23.34,M,12.76,F
$SDDBS,76.53,f,23.33,M,12.75,F
$GPGSV,3,2,12,12,39,111,44,06,20,039,49,14,18,265,40,51,10,123,41*79
$GPGSV,3,3,12,23,01,003,39,24,02,165,39,26,01,288,32,32,07,246,43*78
$GPRMC,000032.000,A,5814.5275,N,15934.7750,W,9.47,12.80,060617,,,D*4D
$GPGGA,000033.000,5814.5301,N,15934.7738,W,2,08,1.1,7.0,M,16.2,M,2.0,0000*65
$GPGSA,M,3,25,29,02,31,12,06,14,51,,,,,1.8,1.1,1.4*3A
$SDDBS,76.82,f,23.42,M,12.80,F
$SDDBS,76.52,f,23.32,M,12.75,F
$GPRMC,000033.000,A,5814.5301,N,15934.7738,W,9.48,12.36,060617,,,D*42
$GPGGA,000034.000,5814.5326,N,15934.7728,W,2,08,1.1,7.0,M,16.2,M,2.0,0000*66
$GPGSA,M,3,25,29,02,31,12,06,14,51,,,,,1.8,1.1,1.4*3A
$SDDBS,76.72,f,23.38,M,12.79,F
$SDDBS,76.50,f,23.32,M,12.75,F
$SDDBS,76.64,f,23.36,M,12.77,F
$GPRMC,000034.000,A,5814.5326,N,15934.7728,W,9.49,11.72,060617,,,D*43
$GPGGA,000035.000,5814.5351,N,15934.7717,W,2,08,1.1,6.9,M,16.2,M,2.0,0000*63
$GPGSA,M,3,25,29,02,31,12,06,14,51,,,,,1.8,1.1,1.4*3A
$SDDBS,76.51,f,23.32,M,12.75,F
$GPRMC,000035.000,A,5814.5351,N,15934.7717,W,9.49,11.91,060617,,,D*43
$GPGGA,000036.000,5814.5377,N,15934.7707,W,2,08,1.1,6.9,M,16.2,M,3.0,0000*64
$GPGSA,M,3,25,29,02,31,12,06,14,51,,,,,1.8,1.1,1.4*3A
$SDDBS,76.53,f,23.33,M,12.76,F
$GPRMC,000036.000,A,5814.5377,N,15934.7707,W,9.48,11.96,060617,,,D*43
$SDDBS,76.53,f,23.33,M,12.75,F
$GPGGA,000037.000,5814.5402,N,15934.7696,W,2,08,1.1,6.8,M,16.2,M,4.0,0000*6F
$GPGSA,M,3,25,29,02,31,12,06,14,51,,,,,1.8,1.1,1.4*3A
$GPGSV,3,1,12,25,82,160,30,29,52,224,36,02,47,086,49,31,42,296,47*74
$SDDBS,76.51,f,23.32,M,12.75,F
$SDDBS,76.48,f,23.31,M,12.75,F
$GPGSV,3,2,12,12,39,111,49,06,20,039,51,14,18,265,40,51,10,123,42*7E
$GPGSV,3,3,12,23,01,003,40,24,02,165,40,26,01,288,29,32,07,246,44*75
$GPRMC,000037.000,A,5814.5402,N,15934.7696,W,9.43,11.97,060617,,,D*44
$GPGGA,000038.000,5814.5426,N,15934.7686,W,2,08,1.1,6.8,M,16.2,M,2.0,0000*61
$GPGSA,M,3,25,29,02,31,12,06,14,51,,,,,1.8,1.1,1.4*3A
$SDDBS,76.40,f,23.29,M,12.73,F
$GPRMC,000038.000,A,5814.5426,N,15934.7686,W,9.42,11.74,060617,,,D*40
$SDDBS,76.82,f,23.41,M,12.80,F
$GPGGA,000039.000,5814.5452,N,15934.7675,W,2,08,1.1,6.7,M,16.2,M,2.0,0000*60
$GPGSA,M,3,25,29,02,31,12,06,14,51,,,,,1.8,1.1,1.4*3A
$SDDBS,76.35,f,23.27,M,12.72,F
$GPRMC,000039.000,A,5814.5452,N,15934.7675,W,9.46,12.02,060617,,,D*48
$SDDBS,76.31,f,23.26,M,12.72,F
$SDDBS,76.24,f,23.24,M,12.71,F
$GPGGA,000040.000,5814.5477,N,15934.7665,W,2,08,1.1,6.7,M,16.2,M,2.0,0000*68
$GPGSA,M,3,25,29,02,31,12,06,14,51,,,,,1.8,1.1,1.4*3A
$SDDBS,76.22,f,23.23,M,12.70,F
$GPRMC,000040.000,A,5814.5477,N,15934.7665,W,9.49,12.08,060617,,,D*45
$GPGGA,000041.000,5814.5503,N,15934.7654,W,2,08,1.1,6.6,M,16.2,M,2.0,0000*68
$GPGSA,M,3,25,29,02,31,12,06,14,51,,,,,1.8,1.1,1.4*3A
$SDDBS,76.53,f,23.33,M,12.75,F
$SDDBS,76.47,f,23.31,M,12.74,F
$GPRMC,000041.000,A,5814.5503,N,15934.7654,W,9.45,11.52,060617,,,D*44
$GPGGA,000042.000,5814.5528,N,15934.7644,W,2,08,1.1,6.6,M,16.2,M,3.0,0000*62
$GPGSA,M,3,25,29,02,31,12,06,14,51,,,,,1.8,1.1,1.4*3A
$GPGSV,3,1,12,25,82,160,30,29,52,224,27,02,47,086,49,31,42,296,47*74
$SDDBS,76.42,f,23.29,M,12.74,F
$SDDBS,76.43,f,23.29,M,12.74,F
$GPGSV,3,2,12,12,39,111,50,06,20,039,49,14,18,265,42,51,10,123,42*7D
$GPGSV,3,3,12,23,01,003,40,24,02,165,41,26,01,288,36,32,07,246,45*7B
$GPRMC,000042.000,A,5814.5528,N,15934.7644,W,9.51,11.04,060617,,,D*49
$GPGGA,000043.000,5814.5554,N,15934.7634,W,2,08,1.1,6.6,M,16.2,M,4.0,0000*68
$GPGSA,M,3,25,29,02,31,12,06,14,51,,,,,1.8,1.1,1.4*3A
$SDDBS,76.22,f,23.23,M,12.70,F
$GPRMC,000043.000,A,5814.5554,N,15934.7634,W,9.49,10.82,060617,,,D*42
$SDDBS,76.34,f,23.27,M,12.72,F
$GPGGA,000044.000,5814.5580,N,15934.7625,W,2,08,1.1,6.5,M,16.2,M,5.0,0000*64
$GPGSA,M,3,25,29,02,31,12,06,14,51,,,,,1.8,1.1,1.4*3A
$SDDBS,76.30,f,23.26,M,12.72,F
$GPRMC,000044.000,A,5814.5580,N,15934.7625,W,9.52,10.59,060617,,,D*40
$SDDBS,76.51,f,23.32,M,12.75,F
$SDDBS,76.43,f,23.30,M,12.74,F
$GPGGA,000045.000,5814.5606,N,15934.7616,W,2,08,1.1,6.5,M,16.2,M,2.0,0000*6F
$GPGSA,M,3,25,29,02,31,12,06,14,51,,,,,1.8,1.1,1.4*3A
$GPRMC,000045.000,A,5814.5606,N,15934.7616,W,9.52,10.34,060617,,,D*47
$SDDBS,76.31,f,23.26,M,12.72,F
$GPGGA,000046.000,5814.5631,N,15934.7607,W,2,08,1.1,6.5,M,16.2,M,1.0,0000*6B
$GPGSA,M,3,25,29,02,31,12,06,14,51,,,,,1.8,1.1,1.4*3A
$SDDBS,76.48,f,23.31,M,12.75,F
$GPRMC,000046.000,A,5814.5631,N,15934.7607,W,9.47,10.30,060617,,,D*40
$SDDBS,76.43,f,23.30,M,12.74,F
$GPGGA,000047.000,5814.5657,N,15934.7598,W,2,08,1.1,6.4,M,16.2,M,2.0,0000*6D
$GPGSA,M,3,25,29,02,31,12,06,14,51,,,,,1.8,1.1,1.4*3A
$GPGSV,3,1,12,25,82,160,25,29,52,224,36,02,47,086,49,31,42,296,47*70
$SDDBS,76.48,f,23.31,M,12.75,F
$SDDBS,76.42,f,23.29,M,12.74,F
$GPGSV,3,2,12,12,39,111,44,06,20,039,49,14,18,265,43,51,10,123,44*7F
$GPGSV,3,3,12,23,01,003,39,24,02,165,42,26,01,288,35,32,07,246,46*76
$GPRMC,000047.000,A,5814.5657,N,15934.7598,W,9.50,10.60,060617,,,D*47
$GPGGA,000048.000,5814.5682,N,15934.7588,W,2,08,1.1,6.3,M,16.2,M,3.0,0000*6D
$GPGSA,M,3,25,29,02,31,12,06,14,51,,,,,1.8,1.1,1.4*3A
$SDDBS,76.32,f,23.26,M,12.72,F
$SDDBS,76.30,f,23.26,M,12.72,F
$GPRMC,000048.000,A,5814.5682,N,15934.7588,W,9.45,10.73,060617,,,D*47
$GPGGA,000049.000,5814.5708,N,15934.7579,W,2,08,1.1,6.2,M,16.2,M,2.0,0000*61
$GPGSA,M,3,25,29,02,31,12,06,14,51,,,,,1.8,1.1,1.4*3A
$SDDBS,76.45,f,23.30,M,12.74,F
$GPRMC,000049.000,A,5814.5708,N,15934.7579,W,9.44,10.74,060617,,,D*4D
$SDDBS,76.26,f,23.24,M,12.71,F
$SDDBS,76.42,f,23.29,M,12.74,F
$GPGGA,000050.000,5814.5733,N,15934.7570,W,2,08,1.1,6.0,M,16.2,M,3.0,0000*6B
$GPGSA,M,3,25,29,02,31,12,06,14,51,,,,,1.8,1.1,1.4*3A
$SDDBS,76.17,f,23.22,M,12.70,F
$GPRMC,000050.000,A,5814.5733,N,15934.7570,W,9.41,10.75,060617,,,D*40
$GPGGA,000051.000,5814.5758,N,15934.7561,W,2,08,1.1,5.9,M,16.2,M,2.0,0000*6C
$GPGSA,M,3,25,29,02,31,12,06,14,51,,,,,1.8,1.1,1.4*3A
$SDDBS,76.20,f,23.23,M,12.70,F
$GPRMC,000051.000,A,5814.5758,N,15934.7561,W,9.49,10.65,060617,,,D*45
$SDDBS,76.16,f,23.21,M,12.69,F
$GPGGA,000052.000,5814.5784,N,15934.7551,W,2,08,1.1,5.8,M,16.2,M,2.0,0000*6C
$GPGSA,M,3,25,29,02,31,12,06,14,51,,,,,1.8,1.1,1.4*3A
$GPGSV,3,1,12,25,82,160,32,29,52,224,33,02,47,086,49,31,42,296,47*73
$SDDBS,76.42,f,23.29,M,12.74,F
$SDDBS,76.61,f,23.35,M,12.77,F
$GPGSV,3,2,12,12,39,111,40,06,20,039,49,14,18,265,43,51,10,123,44*7B
$GPGSV,3,3,12,23,01,003,39,24,02,165,43,26,01,288,34,32,07,246,45*75
$GPRMC,000052.000,A,5814.5784,N,15934.7551,W,9.47,10.69,060617,,,D*46
$GPGGA,000053.000,5814.5810,N,15934.7542,W,2,08,1.1,5.8,M,16.2,M,2.0,0000*6D
$GPGSA,M,3,25,29,02,31,12,06,14,51,,,,,1.8,1.1,1.4*3A
$SDDBS,76.26,f,23.24,M,12.71,F
$SDDBS,76.39,f,23.29,M,12.73,F
$GPRMC,000053.000,A,5814.5810,N,15934.7542,W,9.52,10.11,060617,,,D*4C
$GPGGA,000054.000,5814.5836,N,15934.7534,W,2,08,1.1,5.7,M,16.2,M,2.0,0000*60
$GPGSA,M,3,25,29,02,31,12,06,14,51,,,,,1.8,1.1,1.4*3A
$SDDBS,76.28,f,23.25,M,12.71,F
$SDDBS,76.42,f,23.29,M,12.74,F
$SDDBS,76.32,f,23.26,M,12.72,F
$GPRMC,000054.000,A,5814.5836,N,15934.7534,W,9.53,10.12,060617,,,D*4C
$GPGGA,000055.000,5814.5862,N,15934.7525,W,2,08,1.1,5.7,M,16.2,M,2.0,0000*60
$GPGSA,M,3,25,29,02,31,12,06,14,51,,,,,1.8,1.1,1.4*3A
$SDDBS,76.33,f,23.27,M,12.72,F
$GPRMC,000055.000,A,5814.5862,N,15934.7525,W,9.56,9.84,060617,,,D*7E
$GPGGA,000056.000,5814.5888,N,15934.7516,W,2,08,1.1,5.7,M,16.2,M,3.0,0000*66
$GPGSA,M,3,25,29,02,31,12,06,14,51,,,,,1.8,1.1,1.4*3A
$SDDBS,76.19,f,23.22,M,12.70,F
$GPRMC,000056.000,A,5814.5888,N,15934.7516,W,9.55,9.87,060617,,,D*79
$SDDBS,76.38,f,23.28,M,12.73,F
$GPGGA,000057.000,5814.5914,N,15934.7508,W,2,08,1.1,5.7,M,16.2,M,2.0,0000*6D
$GPGSA,M,3,25,29,02,31,12,06,14,51,,,,,1.8,1.1,1.4*3A
$GPGSV,3,1,12,25,82,160,34,29,52,224,34,02,47,086,50,31,42,296,46*7B
$SDDBS,76.29,f,23.25,M,12.72,F
$SDDBS,76.44,f,23.30,M,12.74,F
$GPGSV,3,2,12,12,39,111,40,06,20,039,50,14,18,265,43,51,10,123,45*72
$GPGSV,3,3,12,23,01,003,40,24,02,165,43,26,01,288,29,32,07,246,44*76
$GPRMC,000057.000,A,5814.5914,N,15934.7508,W,9.53,9.60,060617,,,D*7C
$GPGGA,000058.000,5814.5940,N,15934.7500,W,2,08,1.1,5.6,M,16.2,M,2.0,0000*6A
$GPGSA,M,3,25,29,02,31,12,06,14,51,,,,,1.8,1.1,1.4*3A
$SDDBS,76.12,f,23.20,M,12.69,F
$GPRMC,000058.000,A,5814.5940,N,15934.7500,W,9.52,9.44,060617,,,D*7D
$SDDBS,76.36,f,23.27,M,12.73,F
$GPGGA,000059.000,5814.5966,N,15934.7492,W,2,08,1.1,5.5,M,16.2,M,2.0,0000*66
$GPGSA,M,3,25,29,02,31,12,06,14,51,,,,,1.8,1.1,1.4*3A
$SDDBS,76.26,f,23.25,M,12.71,F
$GPRMC,000059.000,A,5814.5966,N,15934.7492,W,9.56,9.50,060617,,,D*73
$SDDBS,76.17,f,23.22,M,12.69,F
$SDDBS,76.27,f,23.25,M,12.71,F
$GPGGA,000100.000,5814.5991,N,15934.7484,W,2,08,1.1,5.5,M,16.2,M,3.0,0000*65
$GPGSA,M,3,25,29,02,31,12,06,14,51,,,,,1.8,1.1,1.4*3A
$GPRMC,000100.000,A,5814.5991,N,15934.7484,W,9.49,9.58,060617,,,D*77
$SDDBS,76.25,f,23.24,M,12.71,F
$GPGGA,000101.000,5814.6015,N,15934.7476,W,2,08,1.1,5.7,M,16.2,M,4.0,0000*6A
$GPGSA,M,3,25,29,02,31,12,06,14,51,,,,,1.8,1.1,1.4*3A
$GPRMC,000101.000,A,5814.6015,N,15934.7476,W,9.40,10.01,060617,,,D*40
$SDDBS,76.44,f,23.30,M,12.74,F
$SDDBS,76.35,f,23.27,M,12.73,F
$GPGGA,000102.000,5814.6039,N,15934.7468,W,2,08,1.1,5.9,M,16.2,M,5.0,0000*67
$GPGSA,M,3,25,29,02,31,12,06,14,51,,,,,1.8,1.1,1.4*3A
$GPGSV,3,1,12,25,82,160,33,29,52,224,41,02,47,086,49,31,42,296,45*75
$SDDBS,76.23,f,23.23,M,12.70,F
$SDDBS,76.21,f,23.23,M,12.70,F
$GPGSV,3,2,12,12,39,111,44,06,20,039,49,14,18,265,42,51,10,123,45*7F
$GPGSV,3,3,12,23,01,003,42,24,02,165,42,26,01,288,31,32,07,246,43*7B
$GPRMC,000102.000,A,5814.6039,N,15934.7468,W,9.48,9.62,060617,,,D*77
$GPGGA,000103.000,5814.6063,N,15934.7460,W,2,08,1.1,6.0,M,16.2,M,2.0,0000*6C
$GPGSA,M,3,25,29,02,31,12,06,14,51,,,,,1.8,1.1,1.4*3A
$SDDBS,75.93,f,23.14,M,12.65,F
$SDDBS,76.13,f,23.21,M,12.69,F
$GPRMC,000103.000,A,5814.6063,N,15934.7460,W,9.50,9.57,060617,,,D*7E
$GPGGA,000104.000,5814.6088,N,15934.7452,W,2,08,1.1,6.2,M,16.2,M,2.0,0000*6D
$GPGSA,M,3,25,29,02,31,12,06,14,51,,,,,1.8,1.1,1.4*3A
$SDDBS,75.97,f,23.15,M,12.66,F
$GPRMC,000104.000,A,5814.6088,N,15934.7452,W,9.49,9.74,060617,,,D*74
$SDDBS,76.00,f,23.17,M,12.67,F
$SDDBS,76.09,f,23.19,M,12.68,F
$GPGGA,000105.000,5814.6114,N,15934.7443,W,2,08,1.1,6.2,M,16.2,M,2.0,0000*68
$GPGSA,M,3,25,29,02,31,12,06,14,51,,,,,1.8,1.1,1.4*3A
$SDDBS,76.13,f,23.21,M,12.69,F
$GPRMC,000105.000,A,5814.6114,N,15934.7443,W,9.55,9.69,060617,,,D*70
$GPGGA,000106.000,5814.6140,N,15934.7434,W,2,08,1.1,6.1,M,16.2,M,3.0,0000*68
$GPGSA,M,3,25,29,02,31,12,06,14,51,,,,,1.8,1.1,1.4*3A
$SDDBS,76.16,f,23.21,M,12.69,F
$GPRMC,000106.000,A,5814.6140,N,15934.7434,W,9.56,10.24,060617,,,D*40
$SDDBS,76.11,f,23.20,M,12.68,F
$GPGGA,000107.000,5814.6165,N,15934.7424,W,2,08,1.1,6.1,M,16.2,M,4.0,0000*68
$GPGSA,M,3,25,29,02,31,12,06,14,51,,,,,1.8,1.1,1.4*3A
$GPGSV,3,1,12,25,82,160,28,29,52,224,41,02,47,086,49,31,42,296,46*7C
$SDDBS,76.14,f,23.21,M,12.69,F
$SDDBS,76.07,f,23.19,M,12.68,F
$GPGSV,3,2,12,12,39,111,46,06,20,039,50,14,18,265,44,51,10,123,43*75
$GPGSV,3,3,12,23,01,003,42,24,02,165,42,26,01,288,31,32,07,246,42*7A
$GPRMC,000107.000,A,5814.6165,N,15934.7424,W,9.52,10.36,060617,,,D*40
$GPGGA,000108.000,5814.6190,N,15934.7416,W,2,08,1.1,6.3,M,16.2,M,5.0,0000*6F
$GPGSA,M,3,25,29,02,31,12,06,14,51,,,,,1.8,1.1,1.4*3A
$SDDBS,76.22,f,23.23,M,12.70,F
$SDDBS,76.03,f,23.17,M,12.67,F
$GPRMC,000108.000,A,5814.6190,N,15934.7416,W,9.55,10.31,060617,,,D*44
$GPGGA,000109.000,5814.6215,N,15934.7408,W,2,08,1.1,6.5,M,16.2,M,2.0,0000*6E
$GPGSA,M,3,25,29,02,31,12,06,14,51,,,,,1.8,1.1,1.4*3A
$SDDBS,76.09,f,23.19,M,12.68,F
$SDDBS,76.11,f,23.20,M,12.69,F
$SDDBS,76.06,f,23.18,M,12.68,F
$GPRMC,000109.000,A,5814.6215,N,15934.7408,W,9.48,9.98,060617,,,D*73
$GPGGA,000110.000,5814.6240,N,15934.7399,W,2,08,1.1,6.6,M,16.2,M,2.0,0000*6A
$GPGSA,M,3,25,29,02,31,12,06,14,51,,,,,1.8,1.1,1.4*3A
$SDDBS,76.00,f,23.16,M,12.67,F
$GPRMC,000110.000,A,5814.6240,N,15934.7399,W,9.47,10.04,060617,,,D*46
$GPGGA,000111.000,5814.6264,N,15934.7390,W,2,08,1.1,6.7,M,16.2,M,2.0,0000*65
$GPGSA,M,3,25,29,02,31,12,06,14,51,,,,,1.8,1.1,1.4*3A
$SDDBS,76.08,f,23.19,M,12.68,F
$SDDBS,76.14,f,23.21,M,12.69,F
$GPRMC,000111.000,A,5814.6264,N,15934.7390,W,9.45,10.29,060617,,,D*45
$GPGGA,000112.000,5814.6288,N,15934.7381,W,2,08,1.1,6.8,M,16.2,M,3.0,0000*6A
$GPGSA,M,3,25,29,02,31,12,06,14,51,,,,,1.8,1.1,1.4*3A
$GPGSV,3,1,12,25,82,160,28,29,52,224,41,02,47,086,49,31,42,296,46*7C
$SDDBS,76.13,f,23.20,M,12.69,F
$SDDBS,76.06,f,23.18,M,12.68,F
$GPGSV,3,2,12,12,39,111,46,06,20,039,50,14,18,265,45,51,10,123,44*73
$GPGSV,3,3,12,23,01,003,42,24,02,165,35,26,01,288,32,32,07,246,43*78
$GPRMC,000112.000,A,5814.6288,N,15934.7381,W,9.42,10.60,060617,,,D*4E
$GPGGA,000113.000,5814.6313,N,15934.7371,W,2,08,1.1,6.8,M,16.2,M,2.0,0000*66
$GPGSA,M,3,25,29,02,31,12,06,14,51,,,,,1.8,1.1,1.4*3A
$SDDBS,76.31,f,23.26,M,12.72,F
$GPRMC,000113.000,A,5814.6313,N,15934.7371,W,9.44,10.77,060617,,,D*43
$SDDBS,75.93,f,23.14,M,12.65,F
$GPGGA,000114.000,5814.6338,N,15934.7361,W,2,08,1.1,6.7,M,16.2,M,3.0,0000*67
$GPGSA,M,3,25,29,02,31,12,06,14,51,,,,,1.8,1.1,1.4*3A
$SDDBS,76.36,f,23.28,M,12.73,F
$GPRMC,000114.000,A,5814.6338,N,15934.7361,W,9.46,10.79,060617,,,D*40
$SDDBS,76.15,f,23.21,M,12.69,F
$SDDBS,76.24,f,23.24,M,12.71,F
$GPGGA,000115.000,5814.6364,N,15934.7351,W,2,08,1.1,6.6,M,16.2,M,2.0,0000*6C
$GPGSA,M,3,25,29,02,31,12,06,14,51,,,,,1.8,1.1,1.4*3A
$GPRMC,000115.000,A,5814.6364,N,15934.7351,W,9.48,11.38,060617,,,D*41
$SDDBS,75.96,f,23.15,M,12.66,F
$GPGGA,000116.000,5814.6389,N,15934.7341,W,2,08,1.1,6.5,M,16.2,M,2.0,0000*6E
$GPGSA,M,3,25,29,02,31,12,06,14,51,,,,,1.8,1.1,1.4*3A
$SDDBS,75.92,f,23.14,M,12.65,F
$SDDBS,76.00,f,23.16,M,12.67,F
$GPRMC,000116.000,A,5814.6389,N,15934.7341,W,9.49,11.86,060617,,,D*44
$GPGGA,000117.000,5814.6415,N,15934.7331,W,2,08,1.1,6.4,M,16.2,M,2.0,0000*6B
$GPGSA,M,3,25,29,02,31,12,06,14,51,,,,,1.8,1.1,1.4*3A
$GPGSV,3,1,12,25,82,160,27,29,52,224,37,02,47,086,49,31,42,296,46*72
$SDDBS,76.20,f,23.23,M,12.70,F
$SDDBS,76.46,f,23.30,M,12.74,F
$GPGSV,3,2,12,12,39,111,49,06,20,039,50,14,18,265,44,51,10,123,43*7A
$GPGSV,3,3,12,23,01,003,44,24,02,165,29,26,01,288,37,32,07,246,44*71
$GPRMC,000117.000,A,5814.6415,N,15934.7331,W,9.50,11.71,060617,,,D*40
$GPGGA,000118.000,5814.6441,N,15934.7320,W,2,08,1.1,6.4,M,16.2,M,3.0,0000*64
$GPGSA,M,3,25,29,02,31,12,06,14,51,,,,,1.8,1.1,1.4*3A
$SDDBS,76.67,f,23.37,M,12.78,F
$SDDBS,75.93,f,23.14,M,12.65,F
$GPRMC,000118.000,A,5814.6441,N,15934.7320,W,9.49,12.04,060617,,,D*47
$GPGGA,000119.000,5814.6466,N,15934.7310,W,2,08,1.1,6.4,M,16.2,M,2.0,0000*62
$GPGSA,M,3,25,29,02,31,12,06,14,51,,,,,1.8,1.1,1.4*3A
$SDDBS,76.44,f,23.30,M,12.74,F
$GPRMC,000119.000,A,5814.6466,N,15934.7310,W,9.51,11.93,060617,,,D*44
$SDDBS,76.41,f,23.29,M,12.74,F
$SDDBS,76.17,f,23.22,M,12.70,F
$GPGGA,000120.000,5814.6492,N,15934.7299,W,2,07,1.1,6.4,M,16.2,M,3.0,0000*6D
$GPGSA,M,3,29,02,31,12,06,14,51,,,,,,2.0,1.1,1.7*35
$SDDBS,75.87,f,23.13,M,12.65,F
$GPRMC,000120.000,A,5814.6492,N,15934.7299,W,9.51,11.82,060617,,,D*45
$GPGGA,000121.000,5814.6517,N,15934.7289,W,2,07,1.1,6.3,M,16.2,M,2.0,0000*67
$GPGSA,M,3,29,02,31,12,06,14,51,,,,,,2.0,1.1,1.7*35
$SDDBS,75.84,f,23.12,M,12.64,F
$GPRMC,000121.000,A,5814.6517,N,15934.7289,W,9.51,11.43,060617,,,D*44
$SDDBS,75.87,f,23.13,M,12.65,F
$GPGGA,000122.000,5814.6543,N,15934.7279,W,2,08,1.1,6.3,M,16.2,M,2.0,0000*65
$GPGSA,M,3,25,29,02,31,12,06,14,51,,,,,1.8,1.1,1.4*3A
$GPGSV,3,1,12,25,82,160,28,29,52,224,38,02,47,086,48,31,42,296,45*70
$SDDBS,75.89,f,23.13,M,12.65,F
$SDDBS,76.02,f,23.17,M,12.67,F
$GPGSV,3,2,12,12,39,111,50,06,20,039,50,14,18,265,42,51,10,123,43*74
$GPGSV,3,3,12,23,01,003,45,24,02,165,32,26,01,288,36,32,07,246,44*7B
$GPRMC,000122.000,A,5814.6543,N,15934.7279,W,9.43,11.63,060617,,,D*48
$GPGGA,000123.000,5814.6568,N,15934.7269,W,2,08,1.1,6.2,M,16.2,M,2.0,0000*6D
$GPGSA,M,3,25,29,02,31,12,06,14,51,,,,,1.8,1.1,1.4*3A
$SDDBS,76.10,f,23.20,M,12.68,F
$SDDBS,76.28,f,23.25,M,12.71,F
$GPRMC,000123.000,A,5814.6568,N,15934.7269,W,9.42,11.93,060617,,,D*4F
$GPGGA,000124.000,5814.6594,N,15934.7259,W,2,07,1.1,6.1,M,16.2,M,3.0,0000*67
$GPGSA,M,3,29,02,31,12,06,14,51,,,,,,2.0,1.1,1.7*35
$SDDBS,76.20,f,23.23,M,12.70,F
$GPRMC,000124.000,A,5814.6594,N,15934.7259,W,9.45,11.99,060617,,,D*45
$SDDBS,76.14,f,23.21,M,12.69,F
$SDDBS,76.08,f,23.19,M,12.68,F
$GPGGA,000125.000,5814.6619,N,15934.7249,W,2,07,1.1,6.1,M,16.2,M,4.0,0000*66
$GPGSA,M,3,29,02,31,12,06,14,51,,,,,,2.0,1.1,1.7*35
$SDDBS,75.88,f,23.13,M,12.65,F
$GPRMC,000125.000,A,5814.6619,N,15934.7249,W,9.46,11.85,060617,,,D*4D
$GPGGA,000126.000,5814.6645,N,15934.7239,W,2,07,1.1,6.0,M,16.2,M,2.0,0000*6C
$GPGSA,M,3,29,02,31,12,06,14,51,,,,,,2.0,1.1,1.7*35
$SDDBS,75.93,f,23.14,M,12.65,F
$GPRMC,000126.000,A,5814.6645,N,15934.7239,W,9.44,11.42,060617,,,D*49
$SDDBS,75.86,f,23.12,M,12.64,F
$GPGGA,000127.000,5814.6670,N,15934.7229,W,2,07,1.1,5.9,M,16.2,M,2.0,0000*60
$GPGSA,M,3,29,02,31,12,06,14,51,,,,,,2.0,1.1,1.7*35
$GPGSV,3,1,12,29,52,224,39,02,47,086,49,31,42,296,46,12,39,111,50*7E
$SDDBS,75.88,f,23.13,M,12.65,F
$SDDBS,76.09,f,23.19,M,12.68,F
$GPGSV,3,2,12,06,20,039,50,14,18,265,42,51,10,123,43,23,01,003,46*78
$GPGSV,3,3,12,24,02,165,37,25,82,160,29,26,01,288,37,32,07,246,44*7C
$GPRMC,000127.000,A,5814.6670,N,15934.7229,W,9.49,11.54,060617,,,D*45
$GPGGA,000128.000,5814.6696,N,15934.7219,W,2,07,1.1,5.9,M,16.2,M,2.0,0000*64
$GPGSA,M,3,29,02,31,12,06,14,51,,,,,,2.0,1.1,1.7*35
$SDDBS,75.91,f,23.14,M,12.65,F
$GPRMC,000128.000,A,5814.6696,N,15934.7219,W,9.51,11.70,060617,,,D*4E
$SDDBS,75.93,f,23.14,M,12.65,F
$GPGGA,000129.000,5814.6721,N,15934.7208,W,2,07,1.1,5.9,M,16.2,M,2.0,0000*68
$GPGSA,M,3,29,02,31,12,06,14,51,,,,,,2.0,1.1,1.7*35
$SDDBS,75.86,f,23.12,M,12.64,F
$GPRMC,000129.000,A,5814.6721,N,15934.7208,W,9.55,11.58,060617,,,D*4C
$SDDBS,75.88,f,23.13,M,12.65,F
$SDDBS,75.88,f,23.13,M,12.65,F
$GPGGA,000130.000,5814.6747,N,15934.7198,W,2,07,1.1,5.9,M,16.2,M,2.0,0000*6A
$GPGSA,M,3,29,02,31,12,06,14,51,,,,,,2.0,1.1,1.7*35
$GPRMC,000130.000,A,5814.6747,N,15934.7198,W,9.56,11.60,060617,,,D*46
$SDDBS,75.93,f,23.14,M,12.65,F
$GPGGA,000131.000,5814.6773,N,15934.7188,W,2,07,1.1,5.9,M,16.2,M,3.0,0000*6C
$GPGSA,M,3,29,02,31,12,06,14,51,,,,,,2.0,1.1,1.7*35
$SDDBS,75.89,f,23.13,M,12.65,F
$GPRMC,000131.000,A,5814.6773,N,15934.7188,W,9.53,11.35,060617,,,D*44
$SDDBS,75.86,f,23.12,M,12.64,F
$GPGGA,000132.000,5814.6799,N,15934.7178,W,2,07,1.1,5.9,M,16.2,M,4.0,0000*63
$GPGSA,M,3,29,02,31,12,06,14,51,,,,,,2.0,1.1,1.7*35
$GPGSV,3,1,12,29,52,224,36,02,47,086,49,31,42,296,46,12,39,111,50*71
$SDDBS,75.87,f,23.12,M,12.64,F
$SDDBS,75.84,f,23.12,M,12.64,F
$GPGSV,3,2,12,06,20,039,50,14,18,265,43,51,10,123,44,23,01,003,45*7D
$GPGSV,3,3,12,24,02,165,38,25,82,160,29,26,01,288,37,32,07,246,44*73
$GPRMC,000132.000,A,5814.6799,N,15934.7178,W,9.54,11.09,060617,,,D*44
$GPGGA,000133.000,5814.6825,N,15934.7169,W,2,07,1.1,5.8,M,16.2,M,2.0,0000*6D
$GPGSA,M,3,29,02,31,12,06,14,51,,,,,,2.0,1.1,1.7*35
$SDDBS,75.78,f,23.10,M,12.63,F
$SDDBS,76.31,f,23.26,M,12.72,F
$GPRMC,000133.000,A,5814.6825,N,15934.7169,W,9.46,10.99,060617,,,D*46
$GPGGA,000134.000,5814.6851,N,15934.7159,W,2,07,1.1,5.8,M,16.2,M,2.0,0000*6A
$GPGSA,M,3,29,02,31,12,06,14,51,,,,,,2.0,1.1,1.7*35
$SDDBS,75.80,f,23.10,M,12.63,F
$GPRMC,000134.000,A,5814.6851,N,15934.7159,W,9.46,11.19,060617,,,D*48
$SDDBS,75.79,f,23.10,M,12.63,F
$SDDBS,75.78,f,23.10,M,12.63,F
$GPGGA,000135.000,5814.6876,N,15934.7150,W,2,07,1.1,5.7,M,16.2,M,2.0,0000*68
$GPGSA,M,3,29,02,31,12,06,14,51,,,,,,2.0,1.1,1.7*35
$SDDBS,76.04,f,23.18,M,12.67,F
$GPRMC,000135.000,A,5814.6876,N,15934.7150,W,9.47,11.29,060617,,,D*47
$GPGGA,000136.000,5814.6902,N,15934.7140,W,2,07,1.1,5.7,M,16.2,M,3.0,0000*69
$GPGSA,M,3,29,02,31,12,06,14,51,,,,,,2.0,1.1,1.7*35
$SDDBS,75.84,f,23.11,M,12.64,F
$GPRMC,000136.000,A,5814.6902,N,15934.7140,W,9.47,11.14,060617,,,D*49
$SDDBS,75.93,f,23.14,M,12.65,F
$GPGGA,000137.000,5814.6927,N,15934.7131,W,2,07,1.1,5.6,M,16.2,M,4.0,0000*6F
$GPGSA,M,3,29,02,31,12,06,14,51,,,,,,2.0,1.1,1.7*35
$GPGSV,3,1,12,29,52,224,37,02,47,086,49,31,42,296,47,12,39,111,48*78
$SDDBS,75.83,f,23.11,M,12.64,F
$SDDBS,75.91,f,23.14,M,12.65,F
$GPGSV,3,2,12,06,20,039,51,14,18,265,43,51,10,123,42,23,01,003,43*7C
$GPGSV,3,3,12,24,02,165,37,25,82,160,29,26,01,288,38,32,07,246,44*73
$GPRMC,000137.000,A,5814.6927,N,15934.7131,W,9.46,11.08,060617,,,D*45
$GPGGA,000138.000,5814.6953,N,15934.7121,W,2,07,1.1,5.6,M,16.2,M,5.0,0000*63
$GPGSA,M,3,29,02,31,12,06,14,51,,,,,,2.0,1.1,1.7*35
$SDDBS,75.97,f,23.16,M,12.66,F
$GPRMC,000138.000,A,5814.6953,N,15934.7121,W,9.48,10.79,060617,,,D*41
$SDDBS,75.86,f,23.12,M,12.64,F
$GPGGA,000139.000,5814.6978,N,15934.7112,W,2,07,1.1,5.6,M,16.2,M,2.0,0000*6C
$GPGSA,M,3,29,02,31,12,06,14,51,,,,,,2.0,1.1,1.7*35
$SDDBS,75.90,f,23.14,M,12.65,F
$GPRMC,000139.000,A,5814.6978,N,15934.7112,W,9.52,10.73,060617,,,D*48
$SDDBS,75.84,f,23.12,M,12.64,F
$SDDBS,75.84,f,23.12,M,12.64,F
$GPGGA,000140.000,5814.7004,N,15934.7102,W,2,07,1.1,5.6,M,16.2,M,2.0,0000*60
$GPGSA,M,3,29,02,31,12,06,14,51,,,,,,2.0,1.1,1.7*35
$SDDBS,75.95,f,23.15,M,12.66,F
$GPRMC,000140.000,A,5814.7004,N,15934.7102,W,9.50,10.74,060617,,,D*41
$GPGGA,000141.000,5814.7029,N,15934.7093,W,2,07,1.1,5.6,M,16.2,M,2.0,0000*67
$GPGSA,M,3,29,02,31,12,06,14,51,,,,,,2.0,1.1,1.7*35
$SDDBS,75.85,f,23.12,M,12.64,F
$GPRMC,000141.000,A,5814.7029,N,15934.7093,W,9.53,11.22,060617,,,D*47
$SDDBS,75.92,f,23.14,M,12.65,F
$GPGGA,000142.000,5814.7055,N,15934.7083,W,2,07,1.1,5.6,M,16.2,M,2.0,0000*6E
$GPGSA,M,3,29,02,31,12,06,14,51,,,,,,2.0,1.1,1.7*35
$GPGSV,3,1,12,29,52,224,38,02,47,086,49,31,42,296,47,12,39,111,47*78
$SDDBS,75.85,f,23.12,M,12.64,F
$SDDBS,75.90,f,23.13,M,12.65,F
$GPGSV,3,2,12,06,20,039,51,14,18,265,44,51,10,123,44,23,01,003,41*7F
$GPGSV,3,3,12,24,02,165,37,25,82,160,29,26,01,288,39,32,07,246,44*72
$GPRMC,000142.000,A,5814.7055,N,15934.7083,W,9.48,11.15,060617,,,D*40
$GPGGA,000143.000,5814.7081,N,15934.7073,W,2,07,1.1,5.5,M,16.2,M,3.0,0000*6B
$GPGSA,M,3,29,02,31,12,06,14,51,,,,,,2.0,1.1,1.7*35
$SDDBS,75.92,f,23.14,M,12.65,F
$SDDBS,75.86,f,23.12,M,12.64,F
$GPRMC,000143.000,A,5814.7081,N,15934.7073,W,9.48,10.97,060617,,,D*4C
$GPGGA,000144.000,5814.7107,N,15934.7064,W,2,07,1.1,5.4,M,16.2,M,4.0,0000*63
$GPGSA,M,3,29,02,31,12,06,14,51,,,,,,2.0,1.1,1.7*35
$SDDBS,75.86,f,23.12,M,12.64,F
$GPRMC,000144.000,A,5814.7107,N,15934.7064,W,9.49,10.85,060617,,,D*40
$SDDBS,75.63,f,23.05,M,12.60,F
$SDDBS,76.19,f,23.22,M,12.70,F
$GPGGA,000145.000,5814.7132,N,15934.7054,W,2,07,1.1,5.3,M,16.2,M,2.0,0000*66
$GPGSA,M,3,29,02,31,12,06,14,51,,,,,,2.0,1.1,1.7*35
$SDDBS,75.65,f,23.06,M,12.61,F
$GPRMC,000145.000,A,5814.7132,N,15934.7054,W,9.41,10.73,060617,,,D*45
$GPGGA,000146.000,5814.7157,N,15934.7045,W,2,07,1.1,5.3,M,16.2,M,2.0,0000*66
$GPGSA,M,3,29,02,31,12,06,14,51,,,,,,2.0,1.1,1.7*35
$SDDBS,75.75,f,23.09,M,12.62,F
$SDDBS,75.71,f,23.08,M,12.62,F
$GPRMC,000146.000,A,5814.7157,N,15934.7045,W,9.40,10.83,060617,,,D*4B
$GPGGA,000147.000,5814.7183,N,15934.7036,W,2,07,1.1,5.2,M,16.2,M,2.0,0000*6B
$GPGSA,M,3,29,02,31,12,06,14,51,,,,,,2.0,1.1,1.7*35
$GPGSV,3,1,12,29,52,224,35,02,47,086,49,31,42,296,47,12,39,111,48*7A
$SDDBS,75.80,f,23.10,M,12.63,F
$SDDBS,75.81,f,23.11,M,12.63,F
$GPGSV,3,2,12,06,20,039,50,14,18,265,44,51,10,123,44,23,01,003,41*7E
$GPGSV,3,3,12,24,02,165,38,25,82,160,28,26,01,288,40,32,07,246,44*72
$GPRMC,000147.000,A,5814.7183,N,15934.7036,W,9.42,10.63,060617,,,D*4B
$GPGGA,000148.000,5814.7208,N,15934.7027,W,2,07,1.1,5.1,M,16.2,M,3.0,0000*66
$GPGSA,M,3,29,02,31,12,06,14,51,,,,,,2.0,1.1,1.7*35
$SDDBS,76.44,f,23.30,M,12.74,F
$GPRMC,000148.000,A,5814.7208,N,15934.7027,W,9.50,10.83,060617,,,D*49
$SDDBS,75.79,f,23.10,M,12.63,F
$GPGGA,000149.000,5814.7234,N,15934.7018,W,2,07,1.1,5.1,M,16.2,M,4.0,0000*63
$GPGSA,M,3,29,02,31,12,06,14,51,,,,,,2.0,1.1,1.7*35
$SDDBS,75.65,f,23.06,M,12.61,F
$GPRMC,000149.000,A,5814.7234,N,15934.7018,W,9.48,10.82,060617,,,D*43
$SDDBS,75.82,f,23.11,M,12.64,F
$SDDBS,75.95,f,23.15,M,12.66,F
$GPGGA,000150.000,5814.7259,N,15934.7008,W,2,07,1.1,5.1,M,16.2,M,5.0,0000*60
$GPGSA,M,3,29,02,31,12,06,14,51,,,,,,2.0,1.1,1.7*35
$SDDBS,75.91,f,23.14,M,12.65,F
$GPRMC,000150.000,A,5814.7259,N,15934.7008,W,9.49,10.71,060617,,,D*4C
$GPGGA,000151.000,5814.7285,N,15934.6999,W,2,07,1.1,5.2,M,16.2,M,2.0,0000*64
$GPGSA,M,3,29,02,31,12,06,14,51,,,,,,2.0,1.1,1.7*35
$SDDBS,75.85,f,23.12,M,12.64,F
$GPRMC,000151.000,A,5814.7285,N,15934.6999,W,9.56,11.30,060617,,,D*46
$SDDBS,75.78,f,23.10,M,12.63,F
$GPGGA,000152.000,5814.7310,N,15934.6989,W,2,07,1.1,5.2,M,16.2,M,2.0,0000*6B
$GPGSA,M,3,29,02,31,12,06,14,51,,,,,,2.0,1.1,1.7*35
$GPGSV,3,1,12,29,52,224,37,02,47,086,49,31,42,296,47,12,39,111,49*79
$SDDBS,75.79,f,23.10,M,12.63,F
$SDDBS,75.75,f,23.09,M,12.63,F
$GPGSV,3,2,12,06,20,039,51,14,18,265,43,51,10,123,43,23,01,003,40*7E
$GPGSV,3,3,12,24,02,165,38,25,82,160,27,26,01,288,41,32,07,246,45*7D
$GPRMC,000152.000,A,5814.7310,N,15934.6989,W,9.60,11.15,060617,,,D*4B
$GPGGA,000153.000,5814.7336,N,15934.6980,W,2,07,1.1,5.3,M,16.2,M,2.0,0000*66
$GPGSA,M,3,29,02,31,12,06,14,51,,,,,,2.0,1.1,1.7*35
$SDDBS,75.89,f,23.13,M,12.65,F
$SDDBS,75.87,f,23.13,M,12.65,F
$GPRMC,000153.000,A,5814.7336,N,15934.6980,W,9.55,10.93,060617,,,D*4E
$GPGGA,000154.000,5814.7361,N,15934.6970,W,2,07,1.1,5.4,M,16.2,M,3.0,0000*6A
$GPGSA,M,3,29,02,31,12,06,14,51,,,,,,2.0,1.1,1.7*35
$SDDBS,75.84,f,23.12,M,12.64,F
$GPRMC,000154.000,A,5814.7361,N,15934.6970,W,9.47,11.28,060617,,,D*46
$SDDBS,75.84,f,23.12,M,12.64,F
$SDDBS,75.86,f,23.12,M,12.64,F
$GPGGA,000155.000,5814.7386,N,15934.6960,W,2,08,1.1,5.4,M,16.2,M,4.0,0000*6B
$GPGSA,M,3,25,29,02,31,12,06,14,51,,,,,1.8,1.1,1.4*3A
$SDDBS,75.87,f,23.12,M,12.64,F
$GPRMC,000155.000,A,5814.7386,N,15934.6960,W,9.46,11.32,060617,,,D*45
$GPGGA,000156.000,5814.7412,N,15934.6951,W,2,08,1.1,5.5,M,16.2,M,5.0,0000*60
$GPGSA,M,3,25,29,02,31,12,06,14,51,,,,,1.8,1.1,1.4*3A
$SDDBS,75.74,f,23.09,M,12.62,F
$GPRMC,000156.000,A,5814.7412,N,15934.6951,W,9.46,11.21,060617,,,D*4C
$SDDBS,75.73,f,23.08,M,12.62,F
$GPGGA,000157.000,5814.7437,N,15934.6941,W,2,08,1.1,5.5,M,16.2,M,2.0,0000*60
$GPGSA,M,3,25,29,02,31,12,06,14,51,,,,,1.8,1.1,1.4*3A
$GPGSV,3,1,12,25,82,160,32,29,52,224,37,02,47,086,49,31,42,296,46*76
$SDDBS,75.64,f,23.06,M,12.61,F
$SDDBS,75.74,f,23.09,M,12.62,F
$GPGSV,3,2,12,12,39,111,51,06,20,039,50,14,18,265,44,51,10,123,45*75
$GPGSV,3,3,12,23,01,003,40,24,02,165,38,26,01,288,42,32,07,246,45*76
$GPRMC,000157.000,A,5814.7437,N,15934.6941,W,9.39,11.26,060617,,,D*44
$GPGGA,000158.000,5814.7462,N,15934.6931,W,2,08,1.1,5.3,M,16.2,M,2.0,0000*6E
$GPGSA,M,3,25,29,02,31,12,06,14,51,,,,,1.8,1.1,1.4*3A
$SDDBS,75.74,f,23.09,M,12.62,F
$GPRMC,000158.000,A,5814.7462,N,15934.6931,W,9.42,11.17,060617,,,D*42
$SDDBS,75.54,f,23.03,M,12.59,F
$GPGGA,000159.000,5814.7488,N,15934.6922,W,2,08,1.1,5.2,M,16.2,M,2.0,0000*68
$GPGSA,M,3,25,29,02,31,12,06,14,51,,,,,1.8,1.1,1.4*3A
$SDDBS,75.60,f,23.04,M,12.60,F
$GPRMC,000159.000,A,5814.7488,N,15934.6922,W,9.43,11.29,060617,,,D*49
$SDDBS,75.52,f,23.02,M,12.59,F
$SDDBS,75.63,f,23.05,M,12.61,F
$GPGGA,000200.000,5814.7513,N,15934.6912,W,2,08,1.1,5.1,M,16.2,M,3.0,0000*65
$GPGSA,M,3,25,29,02,31,12,06,14,51,,,,,1.8,1.1,1.4*3A
$SDDBS,75.46,f,23.00,M,12.58,F
$GPRMC,000200.000,A,5814.7513,N,15934.6912,W,9.43,11.29,060617,,,D*46
$GPGGA,000201.000,5814.7539,N,15934.6902,W,2,07,1.1,5.0,M,16.2,M,4.0,0000*64
$GPGSA,M,3,29,02,31,12,06,14,51,,,,,,2.0,1.1,1.7*35
$SDDBS,76.06,f,23.18,M,12.68,F
$SDDBS,75.54,f,23.03,M,12.59,F
$GPRMC,000201.000,A,5814.7539,N,15934.6902,W,9.53,10.98,060617,,,D*44
$GPGGA,000202.000,5814.7565,N,15934.6893,W,2,08,1.1,5.0,M,16.2,M,2.0,0000*6E
$GPGSA,M,3,25,29,02,31,12,06,14,51,,,,,1.8,1.1,1.4*3A
$GPGSV,3,1,12,25,82,160,27,29,52,224,34,02,47,086,49,31,42,296,46*71
$SDDBS,75.55,f,23.03,M,12.59,F
$SDDBS,75.41,f,22.98,M,12.57,F
$GPGSV,3,2,12,12,39,111,51,06,20,039,49,14,18,265,43,51,10,123,43*7C
$GPGSV,3,3,12,23,01,003,40,24,02,165,40,26,01,288,42,32,07,246,45*79
$GPRMC,000202.000,A,5814.7565,N,15934.6893,W,9.55,10.93,060617,,,D*4A
$GPGGA,000203.000,5814.7591,N,15934.6883,W,2,07,1.1,4.9,M,16.2,M,2.0,0000*62
$GPGSA,M,3,29,02,31,12,06,14,51,,,,,,2.0,1.1,1.7*35
$SDDBS,75.67,f,23.06,M,12.61,F
$GPRMC,000203.000,A,5814.7591,N,15934.6883,W,9.57,11.18,060617,,,D*41
$SDDBS,75.73,f,23.08,M,12.62,F
$GPGGA,000204.000,5814.7617,N,15934.6873,W,2,08,1.1,4.9,M,16.2,M,2.0,0000*68
$GPGSA,M,3,25,29,02,31,12,06,14,51,,,,,1.8,1.1,1.4*3A
$SDDBS,75.75,f,23.09,M,12.63,F
$GPRMC,000204.000,A,5814.7617,N,15934.6873,W,9.56,11.42,060617,,,D*4A
$SDDBS,75.61,f,23.04,M,12.60,F
$SDDBS,75.61,f,23.05,M,12.60,F
$GPGGA,000205.000,5814.7643,N,15934.6862,W,2,08,1.1,4.9,M,16.2,M,2.0,0000*68
$GPGSA,M,3,25,29,02,31,12,06,14,51,,,,,1.8,1.1,1.4*3A
$GPRMC,000205.000,A,5814.7643,N,15934.6862,W,9.55,11.70,060617,,,D*48
$SDDBS,75.66,f,23.06,M,12.61,F
$GPGGA,000206.000,5814.7668,N,15934.6852,W,2,08,1.1,4.9,M,16.2,M,3.0,0000*60
$GPGSA,M,3,25,29,02,31,12,06,14,51,,,,,1.8,1.1,1.4*3A
$SDDBS,75.81,f,23.11,M,12.63,F
$GPRMC,000206.000,A,5814.7668,N,15934.6852,W,9.52,11.94,060617,,,D*4C
$SDDBS,75.64,f,23.05,M,12.61,F
$GPGGA,000207.000,5814.7694,N,15934.6841,W,2,08,1.1,4.8,M,16.2,M,4.0,0000*66
$GPGSA,M,3,25,29,02,31,12,06,14,51,,,,,1.8,1.1,1.4*3A
$GPGSV,3,1,12,25,82,160,29,29,52,224,40,02,47,086,48,31,42,296,45*7E
$SDDBS,75.59,f,23.04,M,12.60,F
$SDDBS,75.62,f,23.05,M,12.60,F
$GPGSV,3,2,12,12,39,111,51,06,20,039,50,14,18,265,43,51,10,123,45*72
$GPGSV,3,3,12,23,01,003,39,24,02,165,40,26,01,288,41,32,07,246,45*74
$GPRMC,000207.000,A,5814.7694,N,15934.6841,W,9.49,12.11,060617,,,D*48
$GPGGA,000208.000,5814.7720,N,15934.6830,W,2,08,1.1,4.8,M,16.2,M,5.0,0000*60
$GPGSA,M,3,25,29,02,31,12,06,14,51,,,,,1.8,1.1,1.4*3A
$SDDBS,75.70,f,23.07,M,12.62,F
$SDDBS,75.51,f,23.01,M,12.58,F
$GPRMC,000208.000,A,5814.7720,N,15934.6830,W,9.46,12.15,060617,,,D*44
$GPGGA,000209.000,5814.7745,N,15934.6819,W,2,08,1.1,4.8,M,16.2,M,2.0,0000*6E
$GPGSA,M,3,25,29,02,31,12,06,14,51,,,,,1.8,1.1,1.4*3A
$SDDBS,75.70,f,23.07,M,12.62,F
$GPRMC,000209.000,A,5814.7745,N,15934.6819,W,9.39,12.15,060617,,,D*45
$SDDBS,75.67,f,23.06,M,12.61,F
$SDDBS,75.52,f,23.02,M,12.59,F
$GPGGA,000210.000,5814.7771,N,15934.6809,W,2,08,1.1,4.7,M,16.2,M,2.0,0000*6F
$GPGSA,M,3,25,29,02,31,12,06,14,51,,,,,1.8,1.1,1.4*3A
$SDDBS,75.51,f,23.01,M,12.58,F
$GPRMC,000210.000,A,5814.7771,N,15934.6809,W,9.43,11.92,060617,,,D*4A
$GPGGA,000211.000,5814.7796,N,15934.6798,W,2,08,1.1,4.7,M,16.2,M,2.0,0000*60
$GPGSA,M,3,25,29,02,31,12,06,14,51,,,,,1.8,1.1,1.4*3A
$SDDBS,75.27,f,22.94,M,12.55,F
$GPRMC,000211.000,A,5814.7796,N,15934.6798,W,9.45,12.04,060617,,,D*4F
$SDDBS,75.59,f,23.04,M,12.60,F
$GPGGA,000212.000,5814.7822,N,15934.6787,W,2,08,1.1,4.6,M,16.2,M,3.0,0000*6D
$GPGSA,M,3,25,29,02,31,12,06,14,51,,,,,1.7,1.1,1.4*35
$GPGSV,3,1,12,25,82,160,30,29,52,224,31,02,47,086,48,31,42,296,41*74
$SDDBS,75.41,f,22.99,M,12.57,F
$SDDBS,75.48,f,23.01,M,12.58,F
$GPGSV,3,2,12,12,39,111,51,06,20,039,49,14,18,265,38,51,10,123,43*70
$GPGSV,3,3,12,23,01,003,37,24,02,165,40,26,01,288,35,32,07,246,44*78
$GPRMC,000212.000,A,5814.7822,N,15934.6787,W,9.50,12.01,060617,,,D*43
$GPGGA,000213.000,5814.7848,N,15934.6776,W,2,08,1.1,4.6,M,16.2,M,4.0,0000*69
$GPGSA,M,3,25,29,02,31,12,06,14,51,,,,,1.7,1.1,1.4*35
$GPRMC,000213.000,A,5814.7848,N,15934.6776,W,9.45,12.17,060617,,,D*43
$SDDBS,75.59,f,23.04,M,12.60,F
$SDDBS,75.60,f,23.04,M,12.60,F
$GPGGA,000214.000,5814.7873,N,15934.6765,W,2,08,1.1,4.5,M,16.2,M,2.0,0000*61
$GPGSA,M,3,25,29,02,31,12,06,14,51,,,,,1.7,1.1,1.4*35
$SDDBS,75.97,f,23.16,M,12.66,F
$SDDBS,75.61,f,23.05,M,12.60,F
$SDDBS,75.60,f,23.04,M,12.60,F
$GPRMC,000214.000,A,5814.7873,N,15934.6765,W,9.50,11.91,060617,,,D*47
$GPGGA,000215.000,5814.7899,N,15934.6754,W,2,07,1.1,4.4,M,16.2,M,2.0,0000*68
$GPGSA,M,3,29,02,31,12,06,14,51,,,,,,2.0,1.1,1.7*35
$SDDBS,75.86,f,23.12,M,12.64,F
$GPRMC,000215.000,A,5814.7899,N,15934.6754,W,9.53,12.10,060617,,,D*49
$GPGGA,000216.000,5814.7925,N,15934.6743,W,2,08,1.1,4.4,M,16.2,M,2.0,0000*64
$GPGSA,M,3,25,29,02,31,12,06,14,51,,,,,1.7,1.1,1.4*35
$SDDBS,75.77,f,23.09,M,12.63,F
$SDDBS,75.44,f,22.99,M,12.57,F
$GPRMC,000216.000,A,5814.7925,N,15934.6743,W,9.54,11.80,060617,,,D*47
$GPGGA,000217.000,5814.7949,N,15934.6733,W,2,08,1.1,4.6,M,16.2,M,2.0,0000*6A
$GPGSA,M,3,25,29,02,31,12,06,14,51,,,,,1.7,1.1,1.4*35
$GPGSV,3,1,12,25,82,160,31,29,52,224,40,02,47,086,48,31,42,296,44*76
$SDDBS,75.51,f,23.02,M,12.59,F
$SDDBS,75.46,f,23.00,M,12.58,F
$GPGSV,3,2,12,12,39,111,51,06,20,039,49,14,18,265,40,51,10,123,42*7E
$GPGSV,3,3,12,23,01,003,31,24,02,165,39,26,01,288,36,32,07,246,45*72
$GPRMC,000217.000,A,5814.7949,N,15934.6733,W,9.49,11.31,060617,,,D*4D
$GPGGA,000218.000,5814.7975,N,15934.6723,W,2,08,1.1,4.5,M,16.2,M,2.0,0000*68
$GPGSA,M,3,25,29,02,31,12,06,14,51,,,,,1.7,1.1,1.4*35
$SDDBS,75.44,f,22.99,M,12.57,F
$GPRMC,000218.000,A,5814.7975,N,15934.6723,W,9.52,11.65,060617,,,D*47
$SDDBS,75.28,f,22.95,M,12.55,F
$GPGGA,000219.000,5814.8000,N,15934.6713,W,2,08,1.1,4.7,M,16.2,M,3.0,0000*6D
$GPGSA,M,3,25,29,02,31,12,06,14,51,,,,,1.7,1.1,1.4*35
$SDDBS,75.27,f,22.94,M,12.55,F
$GPRMC,000219.000,A,5814.8000,N,15934.6713,W,9.45,11.66,060617,,,D*44
$SDDBS,75.33,f,22.96,M,12.55,F
$SDDBS,75.31,f,22.95,M,12.55,F
$GPGGA,000220.000,5814.8025,N,15934.6702,W,2,08,1.1,4.6,M,16.2,M,2.0,0000*60
$GPGSA,M,3,25,29,02,31,12,06,14,51,,,,,1.7,1.1,1.4*35
$GPRMC,000220.000,A,5814.8025,N,15934.6702,W,9.48,11.79,060617,,,D*4A
$SDDBS,75.67,f,23.06,M,12.61,F
$GPGGA,000221.000,5814.8051,N,15934.6692,W,2,08,1.1,4.5,M,16.2,M,2.0,0000*69
$GPGSA,M,3,25,29,02,31,12,06,14,51,,,,,1.7,1.1,1.4*35
$GPRMC,000221.000,A,5814.8051,N,15934.6692,W,9.41,11.69,060617,,,D*48
$SDDBS,75.30,f,22.95,M,12.55,F
$SDDBS,75.82,f,23.11,M,12.64,F
$GPGGA,000222.000,5814.8076,N,15934.6681,W,2,08,1.1,4.4,M,16.2,M,1.0,0000*6F
$GPGSA,M,3,25,29,02,31,12,06,14,51,,,,,1.7,1.1,1.4*35
$GPGSV,3,1,12,25,82,160,31,29,52,224,40,02,47,086,48,31,42,296,44*76
$SDDBS,75.30,f,22.95,M,12.55,F
$SDDBS,75.29,f,22.95,M,12.55,F
$GPGSV,3,2,12,12,39,111,51,06,20,039,48,14,18,265,41,51,10,123,44*78
$GPGSV,3,3,12,23,01,003,31,24,02,165,40,26,01,288,35,32,07,246,46*7C
$GPRMC,000222.000,A,5814.8076,N,15934.6681,W,9.45,11.39,060617,,,D*4D
$GPGGA,000223.000,5814.8102,N,15934.6671,W,2,08,1.1,4.3,M,16.2,M,2.0,0000*67
$GPGSA,M,3,25,29,02,31,12,06,14,51,,,,,1.7,1.1,1.4*35
$SDDBS,75.36,f,22.97,M,12.56,F
$SDDBS,75.45,f,23.00,M,12.57,F
$GPRMC,000223.000,A,5814.8102,N,15934.6671,W,9.59,10.91,060617,,,D*4F
$GPGGA,000224.000,5814.8128,N,15934.6662,W,2,08,1.1,4.2,M,16.2,M,2.0,0000*6B
$GPGSA,M,3,25,29,02,31,12,06,14,51,,,,,1.7,1.1,1.4*35
$SDDBS,75.27,f,22.94,M,12.55,F
$GPRMC,000224.000,A,5814.8128,N,15934.6662,W,9.53,10.66,060617,,,D*40
$SDDBS,75.31,f,22.95,M,12.55,F
$SDDBS,75.31,f,22.95,M,12.55,F
$GPGGA,000225.000,5814.8154,N,15934.6652,W,2,08,1.1,4.1,M,16.2,M,3.0,0000*60
$GPGSA,M,3,25,29,02,31,12,06,14,51,,,,,1.7,1.1,1.4*35
$GPRMC,000225.000,A,5814.8154,N,15934.6652,W,9.51,10.40,060617,,,D*4F
$SDDBS,75.36,f,22.97,M,12.56,F
$GPGGA,000226.000,5814.8180,N,15934.6643,W,2,08,1.1,4.0,M,16.2,M,4.0,0000*6C
$GPGSA,M,3,25,29,02,31,12,06,14,51,,,,,1.7,1.1,1.4*35
$SDDBS,75.30,f,22.95,M,12.55,F
$GPRMC,000226.000,A,5814.8180,N,15934.6643,W,9.57,10.42,060617,,,D*41
$SDDBS,75.33,f,22.96,M,12.55,F
$GPGGA,000227.000,5814.8206,N,15934.6634,W,2,08,1.1,3.9,M,16.2,M,2.0,0000*68
$GPGSA,M,3,25,29,02,31,12,06,14,51,,,,,1.7,1.1,1.4*35
$GPGSV,3,1,12,25,82,160,30,29,52,224,40,02,47,086,49,31,42,296,46*74
$SDDBS,75.37,f,22.97,M,12.56,F
$SDDBS,75.32,f,22.96,M,12.55,F
$GPGSV,3,2,12,12,39,111,46,06,20,039,48,14,18,265,41,51,10,123,45*7F
$GPGSV,3,3,12,23,01,003,27,24,02,165,40,26,01,288,35,32,07,246,46*7B
$GPRMC,000227.000,A,5814.8206,N,15934.6634,W,9.59,10.48,060617,,,D*49
$GPGGA,000228.000,5814.8232,N,15934.6624,W,2,08,1.1,4.0,M,16.2,M,2.0,0000*6F
$GPGSA,M,3,25,29,02,31,12,06,14,51,,,,,1.7,1.1,1.4*35
$SDDBS,75.36,f,22.97,M,12.56,F
$SDDBS,75.84,f,23.12,M,12.64,F
$GPRMC,000228.000,A,5814.8232,N,15934.6624,W,9.56,10.60,060617,,,D*45
$GPGGA,000229.000,5814.8258,N,15934.6614,W,2,08,1.1,4.0,M,16.2,M,2.0,0000*61
$GPGSA,M,3,25,29,02,31,12,06,14,51,,,,,1.7,1.1,1.4*35
$SDDBS,75.68,f,23.07,M,12.61,F
$GPRMC,000229.000,A,5814.8258,N,15934.6614,W,9.50,10.80,060617,,,D*43
$SDDBS,75.40,f,22.98,M,12.57,F
$SDDBS,75.31,f,22.95,M,12.55,F
$GPGGA,000230.000,5814.8284,N,15934.6605,W,2,08,1.1,4.1,M,16.2,M,3.0,0000*68
$GPGSA,M,3,25,29,02,31,12,06,14,51,,,,,1.7,1.1,1.4*35
$SDDBS,75.29,f,22.95,M,12.55,F
$GPRMC,000230.000,A,5814.8284,N,15934.6605,W,9.50,10.76,060617,,,D*43
$GPGGA,000231.000,5814.8309,N,15934.6595,W,2,08,1.1,4.1,M,16.2,M,4.0,0000*60
$GPGSA,M,3,25,29,02,31,12,06,14,51,,,,,1.7,1.1,1.4*35
$SDDBS,75.39,f,22.98,M,12.57,F
$GPRMC,000231.000,A,5814.8309,N,15934.6595,W,9.50,10.60,060617,,,D*4B
$SDDBS,75.25,f,22.94,M,12.54,F
$GPGGA,000232.000,5814.8335,N,15934.6586,W,2,08,1.1,4.0,M,16.2,M,2.0,0000*69
$GPGSA,M,3,25,29,02,31,12,06,14,51,,,,,1.7,1.1,1.4*35
$GPGSV,3,1,12,25,82,160,30,29,52,224,43,02,47,086,49,31,42,296,47*76
$SDDBS,75.33,f,22.96,M,12.56,F
$SDDBS,75.31,f,22.95,M,12.55,F
$GPGSV,3,2,12,12,39,111,48,06,20,039,48,14,18,265,41,51,10,123,45*71
$GPGSV,3,3,12,23,01,003,29,24,02,165,40,26,01,288,34,32,07,246,46*74
$GPRMC,000232.000,A,5814.8335,N,15934.6586,W,9.50,10.39,060617,,,D*49
$GPGGA,000233.000,5814.8361,N,15934.6577,W,2,08,1.1,3.9,M,16.2,M,2.0,0000*69
$GPGSA,M,3,25,29,02,31,12,06,14,51,,,,,1.7,1.1,1.4*35
$SDDBS,75.27,f,22.94,M,12.55,F
$GPRMC,000233.000,A,5814.8361,N,15934.6577,W,9.43,9.99,060617,,,D*77
$SDDBS,75.21,f,22.93,M,12.54,F
$GPGGA,000234.000,5814.8386,N,15934.6568,W,2,08,1.1,3.8,M,16.2,M,2.0,0000*68
$GPGSA,M,3,25,29,02,31,12,06,14,51,,,,,1.7,1.1,1.4*35
$GPRMC,000234.000,A,5814.8386,N,15934.6568,W,9.46,9.62,060617,,,D*76
$SDDBS,75.24,f,22.93,M,12.54,F
$SDDBS,75.16,f,22.91,M,12.53,F
$SDDBS,75.13,f,22.90,M,12.52,F
$GPGGA,000235.000,5814.8412,N,15934.6560,W,2,08,1.1,3.7,M,16.2,M,2.0,0000*64
$GPGSA,M,3,25,29,02,31,12,06,14,51,,,,,1.7,1.1,1.4*35
$SDDBS,75.54,f,23.02,M,12.59,F
$GPRMC,000235.000,A,5814.8412,N,15934.6560,W,9.48,9.87,060617,,,D*70
$GPGGA,000236.000,5814.8438,N,15934.6551,W,2,08,1.1,3.7,M,16.2,M,3.0,0000*6C
$GPGSA,M,3,25,29,02,31,12,06,14,51,,,,,1.7,1.1,1.4*35
$SDDBS,75.24,f,22.93,M,12.54,F
$SDDBS,75.32,f,22.96,M,12.55,F
$GPRMC,000236.000,A,5814.8438,N,15934.6551,W,9.47,9.89,060617,,,D*78
$GPGGA,000237.000,5814.8463,N,15934.6542,W,2,08,1.1,3.6,M,16.2,M,4.0,0000*67
$GPGSA,M,3,25,29,02,31,12,06,14,51,,,,,1.7,1.1,1.4*35
$GPGSV,3,1,12,25,82,160,30,29,52,224,43,02,47,086,49,31,42,296,46*77
$SDDBS,75.25,f,22.94,M,12.54,F
$SDDBS,75.24,f,22.93,M,12.54,F
$GPGSV,3,2,12,12,39,111,47,06,20,039,48,14,18,265,42,51,10,123,45*7D
$GPGSV,3,3,12,23,01,003,34,24,02,165,40,26,01,288,34,32,07,246,46*78
$GPRMC,000237.000,A,5814.8463,N,15934.6542,W,9.51,9.93,060617,,,D*79
$GPGGA,000238.000,5814.8489,N,15934.6534,W,2,08,1.1,3.5,M,16.2,M,5.0,0000*6F
$GPGSA,M,3,25,29,02,31,12,06,14,51,,,,,1.7,1.1,1.4*35
$SDDBS,75.26,f,22.94,M,12.54,F
$SDDBS,75.29,f,22.95,M,12.55,F
$GPRMC,000238.000,A,5814.8489,N,15934.6534,W,9.51,10.10,060617,,,D*40
$GPGGA,000239.000,5814.8514,N,15934.6525,W,2,08,1.1,3.8,M,16.2,M,2.0,0000*61
$GPGSA,M,3,25,29,02,31,12,06,14,51,,,,,1.7,1.1,1.4*35
$SDDBS,75.24,f,22.93,M,12.54,F
$GPRMC,000239.000,A,5814.8514,N,15934.6525,W,9.56,10.55,060617,,,D*42
$SDDBS,75.28,f,22.95,M,12.55,F
$SDDBS,75.30,f,22.95,M,12.55,F
$GPGGA,000240.000,5814.8540,N,15934.6516,W,2,08,1.1,3.8,M,16.2,M,2.0,0000*6E
$GPGSA,M,3,25,29,02,31,12,06,14,51,,,,,1.7,1.1,1.4*35
$SDDBS,75.62,f,23.05,M,12.60,F
$GPRMC,000240.000,A,5814.8540,N,15934.6516,W,9.56,11.14,060617,,,D*49
$GPGGA,000241.000,5814.8566,N,15934.6506,W,2,08,1.1,3.7,M,16.2,M,2.0,0000*65
$GPGSA,M,3,25,29,02,31,12,06,14,51,,,,,1.7,1.1,1.4*35
$SDDBS,75.25,f,22.94,M,12.54,F
$GPRMC,000241.000,A,5814.8566,N,15934.6506,W,9.53,11.13,060617,,,D*4F
$SDDBS,75.25,f,22.94,M,12.54,F
$GPGGA,000242.000,5814.8590,N,15934.6497,W,2,08,1.1,4.1,M,16.2,M,3.0,0000*66
$GPGSA,M,3,25,29,02,31,12,06,14,51,,,,,1.7,1.1,1.4*35
$GPGSV,3,1,12,25,82,160,30,29,52,224,43,02,47,086,49,31,42,296,46*77
$SDDBS,75.80,f,23.10,M,12.63,F
$SDDBS,75.26,f,22.94,M,12.54,F
$GPGSV,3,2,12,12,39,111,49,06,20,039,48,14,18,265,43,51,10,123,44*73
$GPGSV,3,3,12,23,01,003,34,24,02,165,35,26,01,288,33,32,07,246,47*7C
$GPRMC,000242.000,A,5814.8590,N,15934.6497,W,9.49,10.91,060617,,,D*4C
$GPGGA,000243.000,5814.8615,N,15934.6488,W,2,08,1.1,4.4,M,16.2,M,4.0,0000*65
$GPGSA,M,3,25,29,02,31,12,06,14,51,,,,,1.7,1.1,1.4*35
$SDDBS,75.37,f,22.97,M,12.56,F
$SDDBS,75.09,f,22.89,M,12.51,F
$GPRMC,000243.000,A,5814.8615,N,15934.6488,W,9.50,10.69,060617,,,D*42
$GPGGA,000244.000,5814.8639,N,15934.6479,W,2,08,1.1,4.7,M,16.2,M,5.0,0000*60
$GPGSA,M,3,25,29,02,31,12,06,14,51,,,,,1.7,1.1,1.4*35
$SDDBS,75.30,f,22.95,M,12.55,F
$GPRMC,000244.000,A,5814.8639,N,15934.6479,W,9.50,10.84,060617,,,D*46
$SDDBS,75.15,f,22.91,M,12.52,F
$SDDBS,75.08,f,22.88,M,12.51,F
$GPGGA,000245.000,5814.8664,N,15934.6470,W,2,08,1.1,4.9,M,16.2,M,2.0,0000*69
$GPGSA,M,3,25,29,02,31,12,06,14,51,,,,,1.7,1.1,1.4*35
$SDDBS,75.15,f,22.91,M,12.52,F
$GPRMC,000245.000,A,5814.8664,N,15934.6470,W,9.44,11.06,060617,,,D*48
$GPGGA,000246.000,5814.8689,N,15934.6460,W,2,08,1.1,5.0,M,16.2,M,2.0,0000*60
$GPGSA,M,3,25,29,02,31,12,06,14,51,,,,,1.7,1.1,1.4*35
$SDDBS,75.09,f,22.89,M,12.51,F
$GPRMC,000246.000,A,5814.8689,N,15934.6460,W,9.41,11.34,060617,,,D*4D
$SDDBS,75.15,f,22.91,M,12.53,F
$GPGGA,000247.000,5814.8714,N,15934.6451,W,2,08,1.1,5.1,M,16.2,M,2.0,0000*67
$GPGSA,M,3,25,29,02,31,12,06,14,51,,,,,1.7,1.1,1.4*35
$GPGSV,3,1,12,25,82,160,30,29,52,224,43,02,47,086,48,31,42,296,41*71
$SDDBS,75.03,f,22.87,M,12.50,F
$SDDBS,75.08,f,22.88,M,12.51,F
$GPGSV,3,2,12,12,39,111,50,06,20,039,48,14,18,265,42,51,10,123,44*7A
$GPGSV,3,3,12,23,01,003,34,24,02,165,23,26,01,288,33,32,07,246,47*7B
$GPRMC,000247.000,A,5814.8714,N,15934.6451,W,9.46,11.45,060617,,,D*4A
$GPGGA,000248.000,5814.8738,N,15934.6442,W,2,08,1.1,5.3,M,16.2,M,3.0,0000*67
$GPGSA,M,3,25,29,02,31,12,06,14,51,,,,,1.7,1.1,1.4*35
$SDDBS,75.11,f,22.89,M,12.52,F
$SDDBS,74.94,f,22.84,M,12.49,F
$GPRMC,000248.000,A,5814.8738,N,15934.6442,W,9.50,11.24,060617,,,D*49
$GPGGA,000249.000,5814.8763,N,15934.6432,W,2,08,1.1,5.4,M,16.2,M,3.0,0000*68
$GPGSA,M,3,25,29,02,31,12,06,14,51,,,,,1.7,1.1,1.4*35
$SDDBS,75.13,f,22.90,M,12.52,F
$SDDBS,75.06,f,22.88,M,12.51,F
$SDDBS,75.30,f,22.95,M,12.55,F
$GPRMC,000249.000,A,5814.8763,N,15934.6432,W,9.46,11.20,060617,,,D*42
$GPGGA,000250.000,5814.8788,N,15934.6423,W,2,08,1.1,5.6,M,16.2,M,3.0,0000*67
$GPGSA,M,3,25,29,02,31,12,06,14,51,,,,,1.7,1.1,1.4*35
$SDDBS,75.07,f,22.88,M,12.51,F
$GPRMC,000250.000,A,5814.8788,N,15934.6423,W,9.51,11.07,060617,,,D*4C
$GPGGA,000251.000,5814.8814,N,15934.6413,W,2,08,1.1,5.7,M,16.2,M,2.0,0000*6F
$GPGSA,M,3,25,29,02,31,12,06,14,51,,,,,1.7,1.1,1.4*35
$SDDBS,75.25,f,22.94,M,12.54,F
$SDDBS,75.44,f,22.99,M,12.57,F
$GPRMC,000251.000,A,5814.8814,N,15934.6413,W,9.55,11.27,060617,,,D*42
$GPGGA,000252.000,5814.8839,N,15934.6403,W,2,08,1.1,5.8,M,16.2,M,2.0,0000*6D
$GPGSA,M,3,25,29,02,31,12,06,14,51,,,,,1.7,1.1,1.4*35
$GPGSV,3,1,12,25,81,155,30,29,53,224,43,02,47,085,48,31,43,295,42*77
$SDDBS,75.18,f,22.91,M,12.53,F
$SDDBS,75.16,f,22.91,M,12.53,F
$GPGSV,3,2,12,12,38,111,52,06,19,039,48,14,17,264,41,51,10,123,43*79
$GPGSV,3,3,12,23,01,003,33,26,02,289,33,32,06,246,47,24,01,165,*7D
$GPRMC,000252.000,A,5814.8839,N,15934.6403,W,9.54,11.23,060617,,,D*4A
$GPGGA,000253.000,5814.8864,N,15934.6394,W,2,08,1.1,5.9,M,16.2,M,2.0,0000*6C
$GPGSA,M,3,25,29,02,31,12,06,14,51,,,,,1.7,1.1,1.4*35
$SDDBS,75.23,f,22.93,M,12.54,F
$GPRMC,000253.000,A,5814.8864,N,15934.6394,W,9.51,11.12,060617,,,D*4D
$SDDBS,75.04,f,22.87,M,12.51,F
$GPGGA,000254.000,5814.8889,N,15934.6384,W,2,08,1.1,6.0,M,16.2,M,3.0,0000*62
$GPGSA,M,3,25,29,02,31,12,06,14,51,,,,,1.7,1.1,1.4*35
$SDDBS,75.11,f,22.89,M,12.52,F
$GPRMC,000254.000,A,5814.8889,N,15934.6384,W,9.49,11.04,060617,,,D*46
$SDDBS,75.46,f,23.00,M,12.58,F
$SDDBS,74.95,f,22.85,M,12.49,F
$GPGGA,000255.000,5814.8914,N,15934.6374,W,2,08,1.1,6.1,M,16.2,M,9.0,0000*62
$GPGSA,M,3,25,29,02,31,12,06,14,51,,,,,1.7,1.1,1.4*35
$GPRMC,000255.000,A,5814.8914,N,15934.6374,W,9.46,11.21,060617,,,D*45
$SDDBS,74.96,f,22.85,M,12.49,F
$GPGGA,000256.000,5814.8939,N,15934.6364,W,2,08,1.1,6.2,M,16.2,M,10.0,0000*54
$GPGSA,M,3,25,29,02,31,12,06,14,51,,,,,1.7,1.1,1.4*35
$SDDBS,74.84,f,22.81,M,12.47,F
$SDDBS,74.94,f,22.84,M,12.49,F
$GPRMC,000256.000,A,5814.8939,N,15934.6364,W,9.44,11.36,060617,,,D*4C
$GPGGA,000257.000,5814.8964,N,15934.6355,W,2,08,1.1,6.2,M,16.2,M,11.0,0000*5E
$GPGSA,M,3,25,29,02,31,12,06,14,51,,,,,1.7,1.1,1.4*35
$GPGSV,3,1,12,25,81,155,31,29,53,224,43,02,47,085,48,31,43,295,43*77
$SDDBS,75.06,f,22.88,M,12.51,F
$SDDBS,74.95,f,22.84,M,12.49,F
$GPGSV,3,2,12,12,38,111,52,06,19,039,48,14,17,264,41,51,10,123,43*79
$GPGSV,3,3,12,23,01,003,34,24,01,165,24,26,02,289,34,32,06,246,46*7A
$GPRMC,000257.000,A,5814.8964,N,15934.6355,W,9.45,11.03,060617,,,D*40
$GPGGA,000258.000,5814.8989,N,15934.6345,W,2,08,1.1,6.3,M,16.2,M,12.0,0000*51
$GPGSA,M,3,25,29,02,31,12,06,14,51,,,,,1.7,1.1,1.4*35
$SDDBS,75.16,f,22.91,M,12.53,F
$SDDBS,75.17,f,22.91,M,12.53,F
$GPRMC,000258.000,A,5814.8989,N,15934.6345,W,9.46,11.02,060617,,,D*4F
$GPGGA,000259.000,5814.9015,N,15934.6336,W,2,08,1.1,6.4,M,16.2,M,13.0,0000*5F
$GPGSA,M,3,25,29,02,31,12,06,14,51,,,,,1.7,1.1,1.4*35
$SDDBS,74.97,f,22.85,M,12.50,F
$GPRMC,000259.000,A,5814.9015,N,15934.6336,W,9.50,11.06,060617,,,D*44
$SDDBS,74.94,f,22.84,M,12.49,F
$SDDBS,75.18,f,22.92,M,12.53,F
$GPGGA,000300.000,5814.9040,N,15934.6326,W,2,08,1.1,6.4,M,16.2,M,14.0,0000*54
$GPGSA,M,3,25,29,02,31,12,06,14,51,,,,,1.7,1.1,1.4*35
$SDDBS,75.16,f,22.91,M,12.53,F
$GPRMC,000300.000,A,5814.9040,N,15934.6326,W,9.53,11.23,060617,,,D*4C
$GPGGA,000301.000,5814.9065,N,15934.6316,W,2,08,1.1,6.5,M,16.2,M,15.0,0000*51
$GPGSA,M,3,25,29,02,31,12,06,14,51,,,,,1.7,1.1,1.4*35
$SDDBS,75.03,f,22.87,M,12.51,F
$GPRMC,000301.000,A,5814.9065,N,15934.6316,W,9.54,11.16,060617,,,D*48
$SDDBS,75.05,f,22.87,M,12.51,F
$GPGGA,000302.000,5814.9091,N,15934.6306,W,2,08,1.1,6.5,M,16.2,M,16.0,0000*5B
$GPGSA,M,3,25,29,02,31,12,06,14,51,,,,,1.7,1.1,1.4*35
$GPGSV,3,1,12,25,81,155,30,29,53,224,43,02,47,085,49,31,43,295,44*70
$SDDBS,75.13,f,22.90,M,12.52,F
$SDDBS,75.20,f,22.92,M,12.53,F
$GPGSV,3,2,12,12,38,111,49,06,19,039,48,14,17,264,42,51,10,123,43*70
$GPGSV,3,3,12,23,01,003,35,24,01,165,25,26,02,289,34,32,06,246,45*79
$GPRMC,000302.000,A,5814.9091,N,15934.6306,W,9.53,10.89,060617,,,D*41
$GPGGA,000303.000,5814.9117,N,15934.6297,W,2,08,1.1,6.6,M,16.2,M,17.0,0000*5E
$GPGSA,M,3,25,29,02,31,12,06,14,51,,,,,1.7,1.1,1.4*35
$SDDBS,75.12,f,22.90,M,12.52,F
$SDDBS,75.21,f,22.92,M,12.53,F
$GPRMC,000303.000,A,5814.9117,N,15934.6297,W,9.57,10.69,060617,,,D*4C
$GPGGA,000304.000,5814.9142,N,15934.6288,W,2,08,1.1,6.5,M,16.2,M,18.0,0000*5B
$GPGSA,M,3,25,29,02,31,12,06,14,51,,,,,1.7,1.1,1.4*35
$SDDBS,74.94,f,22.84,M,12.49,F
$GPRMC,000304.000,A,5814.9142,N,15934.6288,W,9.56,10.28,060617,,,D*41
$SDDBS,74.93,f,22.84,M,12.49,F
$SDDBS,75.01,f,22.86,M,12.50,F
$GPGGA,000305.000,5814.9168,N,15934.6278,W,2,08,1.1,6.4,M,16.2,M,19.0,0000*5D
$GPGSA,M,3,25,29,02,31,12,06,14,51,,,,,1.7,1.1,1.4*35
$SDDBS,75.07,f,22.88,M,12.51,F
$GPRMC,000305.000,A,5814.9168,N,15934.6278,W,9.47,10.20,060617,,,D*4F
$GPGGA,000306.000,5814.9194,N,15934.6269,W,2,08,1.1,6.3,M,16.2,M,2.0,0000*60
$GPGSA,M,3,25,29,02,31,12,06,14,51,,,,,1.7,1.1,1.4*35
$SDDBS,75.08,f,22.88,M,12.51,F
$GPRMC,000306.000,A,5814.9194,N,15934.6269,W,9.50,10.27,060617,,,D*4E
$SDDBS,75.20,f,22.92,M,12.53,F
$GPGGA,000307.000,5814.9220,N,15934.6260,W,2,08,1.1,6.1,M,16.2,M,3.0,0000*67
$GPGSA,M,3,25,29,02,31,12,06,14,51,,,,,1.7,1.1,1.4*35
$GPGSV,3,1,12,25,81,155,31,29,53,224,42,02,47,085,49,31,43,295,45*71
$SDDBS,75.14,f,22.90,M,12.52,F
$SDDBS,74.68,f,22.76,M,12.45,F
$GPGSV,3,2,12,12,38,111,49,06,19,039,49,14,17,264,42,51,10,123,45*77
$GPGSV,3,3,12,23,01,003,36,24,01,165,17,26,02,289,35,32,06,246,45*7A
$GPRMC,000307.000,A,5814.9220,N,15934.6260,W,9.45,10.33,060617,,,D*4B
$GPGGA,000308.000,5814.9246,N,15934.6250,W,2,08,1.1,5.9,M,16.2,M,4.0,0000*67
$GPGSA,M,3,25,29,02,31,12,06,14,51,,,,,1.7,1.1,1.4*35
$SDDBS,74.79,f,22.80,M,12.46,F
$SDDBS,74.70,f,22.77,M,12.45,F
$GPRMC,000308.000,A,5814.9246,N,15934.6250,W,9.47,10.11,060617,,,D*45
$GPGGA,000309.000,5814.9271,N,15934.6242,W,2,08,1.1,5.9,M,16.2,M,2.0,0000*67
$GPGSA,M,3,25,29,02,31,12,06,14,51,,,,,1.7,1.1,1.4*35
$SDDBS,74.62,f,22.74,M,12.44,F
$GPRMC,000309.000,A,5814.9271,N,15934.6242,W,9.42,10.00,060617,,,D*46
$SDDBS,74.75,f,22.78,M,12.46,F
$SDDBS,74.69,f,22.77,M,12.45,F
$GPGGA,000310.000,5814.9296,N,15934.6233,W,2,08,1.1,6.0,M,16.2,M,2.0,0000*6A
$GPGSA,M,3,25,29,02,31,12,06,14,51,,,,,1.7,1.1,1.4*35
$SDDBS,74.87,f,22.82,M,12.48,F
$GPRMC,000310.000,A,5814.9296,N,15934.6233,W,9.42,10.03,060617,,,D*42
$GPGGA,000311.000,5814.9321,N,15934.6224,W,2,08,1.1,6.1,M,16.2,M,2.0,0000*61
$GPGSA,M,3,25,29,02,31,12,06,14,51,,,,,1.7,1.1,1.4*35
$SDDBS,74.86,f,22.82,M,12.48,F
$GPRMC,000311.000,A,5814.9321,N,15934.6224,W,9.48,10.13,060617,,,D*43
$SDDBS,74.97,f,22.85,M,12.49,F
$GPGGA,000312.000,5814.9348,N,15934.6215,W,2,08,1.1,6.0,M,16.2,M,3.0,0000*6F
$GPGSA,M,3,25,29,02,31,12,06,14,51,,,,,1.7,1.1,1.4*35
$GPGSV,3,1,12,25,81,155,31,29,53,224,42,02,47,085,49,31,43,295,46*72
$SDDBS,74.79,f,22.79,M,12.46,F
$SDDBS,75.04,f,22.87,M,12.51,F
$GPGSV,3,2,12,12,38,111,47,06,19,039,50,14,17,264,42,51,10,123,45*71
$GPGSV,3,3,12,23,01,003,37,24,01,165,25,26,02,289,37,32,06,246,43*7E
$GPRMC,000312.000,A,5814.9348,N,15934.6215,W,9.53,10.37,060617,,,D*41
$GPGGA,000313.000,5814.9374,N,15934.6206,W,2,08,1.1,5.9,M,16.2,M,4.0,0000*6E
$GPGSA,M,3,25,29,02,31,12,06,14,51,,,,,1.7,1.1,1.4*35
$GPRMC,000313.000,A,5814.9374,N,15934.6206,W,9.57,10.18,060617,,,D*44
$SDDBS,74.88,f,22.82,M,12.48,F
$SDDBS,75.06,f,22.88,M,12.51,F
$GPGGA,000314.000,5814.9400,N,15934.6197,W,2,08,1.1,5.8,M,16.2,M,5.0,0000*66
$GPGSA,M,3,25,29,02,31,12,06,14,51,,,,,1.7,1.1,1.4*35
$SDDBS,74.85,f,22.81,M,12.47,F
$SDDBS,74.85,f,22.81,M,12.47,F
$SDDBS,75.15,f,22.90,M,12.52,F
$GPRMC,000314.000,A,5814.9400,N,15934.6197,W,9.55,10.02,060617,,,D*45
$GPGGA,000315.000,5814.9426,N,15934.6188,W,2,08,1.1,5.8,M,16.2,M,2.0,0000*6A
$GPGSA,M,3,25,29,02,31,12,06,14,51,,,,,1.7,1.1,1.4*35
$SDDBS,74.85,f,22.81,M,12.48,F
$GPRMC,000315.000,A,5814.9426,N,15934.6188,W,9.62,10.08,060617,,,D*40
$GPGGA,000316.000,5814.9453,N,15934.6179,W,2,08,1.1,5.6,M,16.2,M,2.0,0000*6B
