$GPZDA,000000.000,11,08,2022,,*5C
$GPGGA,000000.000,6320.1187,N,17321.1769,W,1,08,1.2,8.4,M,5.9,M,,0000*72
$GPGLL,6320.1187,N,17321.1769,W,000000.000,A,A*4C
$GPRMC,000000.000,A,6320.1187,N,17321.1769,W,10.34,273.17,100822,,,A*44
$GPVTG,273.17,T,,M,10.34,N,19.1,K,A*02
$GPZDA,000001.000,11,08,2022,,*5D
$GPGGA,000001.000,6320.1188,N,17321.1835,W,1,08,1.2,8.2,M,5.9,M,,0000*7C
$GPGLL,6320.1188,N,17321.1835,W,000001.000,A,A*44
$GPRMC,000001.000,A,6320.1188,N,17321.1835,W,10.77,271.04,110822,,,A*4A
$GPVTG,271.04,T,,M,10.77,N,20.0,K,A*0E
$GPZDA,000002.000,11,08,2022,,*5E
$GPGGA,000002.000,6320.1189,N,17321.1900,W,1,08,1.2,8.5,M,5.9,M,,0000*7E
$GPGLL,6320.1189,N,17321.1900,W,000002.000,A,A*41
$GPRMC,000002.000,A,6320.1189,N,17321.1900,W,9.97,270.27,110822,,,A*79
$GPVTG,270.27,T,,M,9.97,N,18.5,K,A*36
$GPZDA,000003.000,11,08,2022,,*5F
$GPGGA,000003.000,6320.1191,N,17321.1962,W,1,08,1.2,8.9,M,5.9,M,,0000*7E
$GPGLL,6320.1191,N,17321.1962,W,000003.000,A,A*4D
$GPRMC,000003.000,A,6320.1191,N,17321.1962,W,9.56,272.06,110822,,,A*79
$GPVTG,272.06,T,,M,9.56,N,17.7,K,A*37
$GPZDA,000004.000,11,08,2022,,*58
$GPGGA,000004.000,6320.1192,N,17321.2024,W,1,08,1.2,9.0,M,5.9,M,,0000*7A
$GPGLL,6320.1192,N,17321.2024,W,000004.000,A,A*41
$GPRMC,000004.000,A,6320.1192,N,17321.2024,W,10.38,274.02,110822,,,A*47
$GPVTG,274.02,T,,M,10.38,N,19.2,K,A*0E
$GPZDA,000005.000,11,08,2022,,*59
$GPGGA,000005.000,6320.1193,N,17321.2087,W,1,08,1.2,8.8,M,5.9,M,,0000*7A
$GPGLL,6320.1193,N,17321.2087,W,000005.000,A,A*48
$GPRMC,000005.000,A,6320.1193,N,17321.2087,W,9.87,268.94,110822,,,A*70
$GPVTG,268.94,T,,M,9.87,N,18.3,K,A*30
:::msg fm client 99: MarportCommander on NOAA-PC - v0.9.55.0 - 20220811-000006Z
$GPZDA,000006.000,11,08,2022,,*5A
$GPGGA,000006.000,6320.1194,N,17321.2149,W,1,08,1.2,8.7,M,5.9,M,,0000*72
$GPGLL,6320.1194,N,17321.2149,W,000006.000,A,A*4F
$GPRMC,000006.000,A,6320.1194,N,17321.2149,W,9.98,272.39,110822,,,A*75
$GPVTG,272.39,T,,M,9.98,N,18.5,K,A*34
$GPZDA,000007.000,11,08,2022,,*5B
$GPGGA,000007.000,6320.1195,N,17321.2211,W,1,08,1.2,9.0,M,5.9,M,,0000*7A
$GPGLL,6320.1195,N,17321.2211,W,000007.000,A,A*41
$GPRMC,000007.000,A,6320.1195,N,17321.2211,W,9.63,270.21,110822,,,A*74
$GPVTG,270.21,T,,M,9.63,N,17.8,K,A*39
$GPZDA,000008.000,11,08,2022,,*54
$GPGGA,000008.000,6320.1195,N,17321.2274,W,1,08,1.2,8.9,M,5.9,M,,0000*7E
$GPGLL,6320.1195,N,17321.2274,W,000008.000,A,A*4D
$GPRMC,000008.000,A,6320.1195,N,17321.2274,W,10.62,268.56,110822,,,A*48
$GPVTG,268.56,T,,M,10.62,N,19.7,K,A*08
$GPZDA,000009.000,11,08,2022,,*55
$GPGGA,000009.000,6320.1194,N,17321.2338,W,1,08,1.2,8.6,M,5.9,M,,0000*78
$GPGLL,6320.1194,N,17321.2338,W,000009.000,A,A*44
$GPRMC,000009.000,A,6320.1194,N,17321.2338,W,10.19,267.41,110822,,,A*44
$GPVTG,267.41,T,,M,10.19,N,18.9,K,A*02
:::msg fm client 98: C:\Program Files\Marport CommandView3\CommandView.exe on NOAA-PC -  - 16:00:09
$GPZDA,000010.000,11,08,2022,,*5D
$GPGGA,000010.000,6320.1195,N,17321.2401,W,1,08,1.2,8.9,M,5.9,M,,0000*73
$GPGLL,6320.1195,N,17321.2401,W,000010.000,A,A*40
$GPRMC,000010.000,A,6320.1195,N,17321.2401,W,9.60,271.89,110822,,,A*75
$GPVTG,271.89,T,,M,9.60,N,17.8,K,A*39
$GPZDA,000011.000,11,08,2022,,*5C
$GPGGA,000011.000,6320.1197,N,17321.2462,W,1,08,1.2,9.2,M,5.9,M,,0000*7F
$GPGLL,6320.1197,N,17321.2462,W,000011.000,A,A*46
$GPRMC,000011.000,A,6320.1197,N,17321.2462,W,9.91,273.68,110822,,,A*70
$GPVTG,273.68,T,,M,9.91,N,18.4,K,A*39
$GPZDA,000012.000,11,08,2022,,*5F
$GPGGA,000012.000,6320.1199,N,17321.2526,W,1,08,1.2,8.8,M,5.9,M,,0000*78
$GPGLL,6320.1199,N,17321.2526,W,000012.000,A,A*4A
$GPRMC,000012.000,A,6320.1199,N,17321.2526,W,10.74,274.30,110822,,,A*45
$GPVTG,274.30,T,,M,10.74,N,19.9,K,A*0C
$GPZDA,000013.000,11,08,2022,,*5E
$GPGGA,000013.000,6320.1200,N,17321.2592,W,1,08,1.2,8.0,M,5.9,M,,0000*7D
$GPGLL,6320.1200,N,17321.2592,W,000013.000,A,A*47
$GPRMC,000013.000,A,6320.1200,N,17321.2592,W,10.52,272.83,110822,,,A*42
$GPVTG,272.83,T,,M,10.52,N,19.5,K,A*0A
$GPZDA,000014.000,11,08,2022,,*59
$GPGGA,000014.000,6320.1203,N,17321.2653,W,1,08,1.2,8.0,M,5.9,M,,0000*77
$GPGLL,6320.1203,N,17321.2653,W,000014.000,A,A*4D
$GPRMC,000014.000,A,6320.1203,N,17321.2653,W,9.11,273.59,110822,,,A*71
$GPVTG,273.59,T,,M,9.11,N,16.9,K,A*30
$GPZDA,000015.000,11,08,2022,,*58
$GPGGA,000015.000,6320.1203,N,17321.2712,W,1,08,1.2,8.2,M,5.9,M,,0000*70
$GPGLL,6320.1203,N,17321.2712,W,000015.000,A,A*48
$GPRMC,000015.000,A,6320.1203,N,17321.2712,W,9.82,267.36,110822,,,A*72
$GPVTG,267.36,T,,M,9.82,N,18.2,K,A*33
:::msg fm client 99: MarportCommander on NOAA-PC - v0.9.55.0 - 20220811-000016Z
$GPZDA,000016.000,11,08,2022,,*5B
$GPGGA,000016.000,6320.1202,N,17321.2775,W,1,08,1.2,8.0,M,5.9,M,,0000*71
$GPGLL,6320.1202,N,17321.2775,W,000016.000,A,A*4B
$GPRMC,000016.000,A,6320.1202,N,17321.2775,W,10.39,268.99,110822,,,A*43
$GPVTG,268.99,T,,M,10.39,N,19.2,K,A*00
$GPZDA,000017.000,11,08,2022,,*5A
$GPGGA,000017.000,6320.1204,N,17321.2840,W,1,08,1.2,7.9,M,5.9,M,,0000*79
$GPGLL,6320.1204,N,17321.2840,W,000017.000,A,A*45
$GPRMC,000017.000,A,6320.1204,N,17321.2840,W,10.45,273.62,110822,,,A*48
$GPVTG,273.62,T,,M,10.45,N,19.3,K,A*04
$GPZDA,000018.000,11,08,2022,,*55
$GPGGA,000018.000,6320.1206,N,17321.2904,W,1,08,1.2,8.0,M,5.9,M,,0000*73
$GPGLL,6320.1206,N,17321.2904,W,000018.000,A,A*49
$GPRMC,000018.000,A,6320.1206,N,17321.2904,W,9.99,273.18,110822,,,A*70
$GPVTG,273.18,T,,M,9.99,N,18.5,K,A*37
$GPZDA,000019.000,11,08,2022,,*54
$GPGGA,000019.000,6320.1208,N,17321.2966,W,1,08,1.2,8.2,M,5.9,M,,0000*7A
$GPGLL,6320.1208,N,17321.2966,W,000019.000,A,A*42
$GPRMC,000019.000,A,6320.1208,N,17321.2966,W,9.94,272.37,110822,,,A*7A
$GPVTG,272.37,T,,M,9.94,N,18.4,K,A*37
:::msg fm client 98: C:\Program Files\Marport CommandView3\CommandView.exe on NOAA-PC -  - 16:00:19
$GPZDA,000020.000,11,08,2022,,*5E
$GPGGA,000020.000,6320.1209,N,17321.3030,W,1,08,1.2,8.6,M,5.9,M,,0000*7E
$GPGLL,6320.1209,N,17321.3030,W,000020.000,A,A*42
$GPRMC,000020.000,A,6320.1209,N,17321.3030,W,10.10,270.99,110822,,,A*48
$GPVTG,270.99,T,,M,10.10,N,18.7,K,A*06
$GPZDA,000021.000,11,08,2022,,*5F
$GPGGA,000021.000,6320.1210,N,17321.3095,W,1,08,1.2,8.6,M,5.9,M,,0000*78
$GPGLL,6320.1210,N,17321.3095,W,000021.000,A,A*44
$GPRMC,000021.000,A,6320.1210,N,17321.3095,W,10.74,268.95,110822,,,A*49
$GPVTG,268.95,T,,M,10.74,N,19.9,K,A*0E
$GPZDA,000022.000,11,08,2022,,*5C
$GPGGA,000022.000,6320.1209,N,17321.3161,W,1,08,1.2,8.7,M,5.9,M,,0000*78
$GPGLL,6320.1209,N,17321.3161,W,000022.000,A,A*45
$GPRMC,000022.000,A,6320.1209,N,17321.3161,W,10.37,268.64,110822,,,A*41
$GPVTG,268.64,T,,M,10.37,N,19.2,K,A*0C
$GPZDA,000023.000,11,08,2022,,*5D
$GPGGA,000023.000,6320.1210,N,17321.3224,W,1,08,1.2,9.0,M,5.9,M,,0000*75
$GPGLL,6320.1210,N,17321.3224,W,000023.000,A,A*4E
$GPRMC,000023.000,A,6320.1210,N,17321.3224,W,9.71,271.78,110822,,,A*75
$GPVTG,271.78,T,,M,9.71,N,18.0,K,A*30
$GPZDA,000024.000,11,08,2022,,*5A
$GPGGA,000024.000,6320.1212,N,17321.3286,W,1,08,1.2,9.5,M,5.9,M,,0000*7D
$GPGLL,6320.1212,N,17321.3286,W,000024.000,A,A*43
$GPRMC,000024.000,A,6320.1212,N,17321.3286,W,9.87,274.72,110822,,,A*7E
$GPVTG,274.72,T,,M,9.87,N,18.3,K,A*35
$GPZDA,000025.000,11,08,2022,,*5B
$GPGGA,000025.000,6320.1215,N,17321.3350,W,1,08,1.2,9.4,M,5.9,M,,0000*70
$GPGLL,6320.1215,N,17321.3350,W,000025.000,A,A*4F
$GPRMC,000025.000,A,6320.1215,N,17321.3350,W,10.99,275.84,110822,,,A*4D
$GPVTG,275.84,T,,M,10.99,N,20.3,K,A*01
:::msg fm client 99: MarportCommander on NOAA-PC - v0.9.55.0 - 20220811-000026Z
$GPZDA,000026.000,11,08,2022,,*58
$GPGGA,000026.000,6320.1216,N,17321.3417,W,1,08,1.2,9.0,M,5.9,M,,0000*70
$GPGLL,6320.1216,N,17321.3417,W,000026.000,A,A*4B
$GPRMC,000026.000,A,6320.1216,N,17321.3417,W,10.44,270.95,110822,,,A*4C
$GPVTG,270.95,T,,M,10.44,N,19.3,K,A*0E
$GPZDA,000027.000,11,08,2022,,*59
$GPGGA,000027.000,6320.1216,N,17321.3480,W,1,08,1.2,9.3,M,5.9,M,,0000*7C
$GPGLL,6320.1216,N,17321.3480,W,000027.000,A,A*44
$GPRMC,000027.000,A,6320.1216,N,17321.3480,W,9.64,266.60,110822,,,A*74
$GPVTG,266.60,T,,M,9.64,N,17.9,K,A*3D
$GPZDA,000028.000,11,08,2022,,*56
$GPGGA,000028.000,6320.1216,N,17321.3541,W,1,08,1.2,9.4,M,5.9,M,,0000*78
$GPGLL,6320.1216,N,17321.3541,W,000028.000,A,A*47
$GPRMC,000028.000,A,6320.1216,N,17321.3541,W,9.90,268.80,110822,,,A*7C
$GPVTG,268.80,T,,M,9.90,N,18.3,K,A*33
$GPZDA,000029.000,11,08,2022,,*57
$GPGGA,000029.000,6320.1217,N,17321.3605,W,1,08,1.2,9.7,M,5.9,M,,0000*78
$GPGLL,6320.1217,N,17321.3605,W,000029.000,A,A*44
$GPRMC,000029.000,A,6320.1217,N,17321.3605,W,10.44,275.24,110822,,,A*4C
$GPVTG,275.24,T,,M,10.44,N,19.3,K,A*01
:::msg fm client 98: C:\Program Files\Marport CommandView3\CommandView.exe on NOAA-PC -  - 16:00:29
$GPZDA,000030.000,11,08,2022,,*5F
$GPGGA,000030.000,6320.1220,N,17321.3669,W,1,08,1.2,9.5,M,5.9,M,,0000*7C
$GPGLL,6320.1220,N,17321.3669,W,000030.000,A,A*42
$GPRMC,000030.000,A,6320.1220,N,17321.3669,W,10.55,276.16,110822,,,A*48
$GPVTG,276.16,T,,M,10.55,N,19.5,K,A*05
$GPZDA,000031.000,11,08,2022,,*5E
$GPGGA,000031.000,6320.1222,N,17321.3734,W,1,08,1.2,9.1,M,5.9,M,,0000*72
$GPGLL,6320.1222,N,17321.3734,W,000031.000,A,A*48
$GPRMC,000031.000,A,6320.1222,N,17321.3734,W,10.51,273.25,110822,,,A*43
$GPVTG,273.25,T,,M,10.51,N,19.5,K,A*04
$GPZDA,000032.000,11,08,2022,,*5D
$GPGGA,000032.000,6320.1223,N,17321.3799,W,1,08,1.2,9.1,M,5.9,M,,0000*77
$GPGLL,6320.1223,N,17321.3799,W,000032.000,A,A*4D
$GPRMC,000032.000,A,6320.1223,N,17321.3799,W,9.96,269.55,110822,,,A*79
$GPVTG,269.55,T,,M,9.96,N,18.5,K,A*3A
$GPZDA,000033.000,11,08,2022,,*5C
$GPGGA,000033.000,6320.1224,N,17321.3861,W,1,08,1.2,9.4,M,5.9,M,,0000*7C
$GPGLL,6320.1224,N,17321.3861,W,000033.000,A,A*43
$GPRMC,000033.000,A,6320.1224,N,17321.3861,W,9.85,269.16,110822,,,A*72
$GPVTG,269.16,T,,M,9.85,N,18.2,K,A*38
$GPZDA,000034.000,11,08,2022,,*5B
$GPGGA,000034.000,6320.1224,N,17321.3923,W,1,08,1.2,9.5,M,5.9,M,,0000*7D
$GPGLL,6320.1224,N,17321.3923,W,000034.000,A,A*43
$GPRMC,000034.000,A,6320.1224,N,17321.3923,W,10.04,272.43,110822,,,A*49
$GPVTG,272.43,T,,M,10.04,N,18.6,K,A*07
$GPZDA,000035.000,11,08,2022,,*5A
$GPGGA,000035.000,6320.1226,N,17321.3987,W,1,08,1.2,9.4,M,5.9,M,,0000*71
$GPGLL,6320.1226,N,17321.3987,W,000035.000,A,A*4E
$GPRMC,000035.000,A,6320.1226,N,17321.3987,W,10.56,273.57,110822,,,A*47
$GPVTG,273.57,T,,M,10.56,N,19.6,K,A*05
:::msg fm client 99: MarportCommander on NOAA-PC - v0.9.55.0 - 20220811-000036Z
$GPZDA,000036.000,11,08,2022,,*59
$GPGGA,000036.000,6320.1228,N,17321.4052,W,1,08,1.2,9.1,M,5.9,M,,0000*7F
$GPGLL,6320.1228,N,17321.4052,W,000036.000,A,A*45
$GPRMC,000036.000,A,6320.1228,N,17321.4052,W,10.29,272.99,110822,,,A*47
$GPVTG,272.99,T,,M,10.29,N,19.1,K,A*09
$GPZDA,000037.000,11,08,2022,,*58
$GPGGA,000037.000,6320.1229,N,17321.4115,W,1,08,1.2,9.1,M,5.9,M,,0000*7D
$GPGLL,6320.1229,N,17321.4115,W,000037.000,A,A*47
$GPRMC,000037.000,A,6320.1229,N,17321.4115,W,9.88,271.77,110822,,,A*75
$GPVTG,271.77,T,,M,9.88,N,18.3,K,A*3A
$GPZDA,000038.000,11,08,2022,,*57
$GPGGA,000038.000,6320.1230,N,17321.4177,W,1,08,1.2,9.3,M,5.9,M,,0000*7C
$GPGLL,6320.1230,N,17321.4177,W,000038.000,A,A*44
$GPRMC,000038.000,A,6320.1230,N,17321.4177,W,9.84,270.00,110822,,,A*7B
$GPVTG,270.00,T,,M,9.84,N,18.2,K,A*36
$GPZDA,000039.000,11,08,2022,,*56
$GPGGA,000039.000,6320.1230,N,17321.4239,W,1,08,1.2,9.4,M,5.9,M,,0000*73
$GPGLL,6320.1230,N,17321.4239,W,000039.000,A,A*4C
$GPRMC,000039.000,A,6320.1230,N,17321.4239,W,10.17,268.91,110822,,,A*40
$GPVTG,268.91,T,,M,10.17,N,18.8,K,A*0F
:::msg fm client 98: C:\Program Files\Marport CommandView3\CommandView.exe on NOAA-PC -  - 16:00:39
$GPZDA,000040.000,11,08,2022,,*58
$GPGGA,000040.000,6320.1231,N,17321.4303,W,1,08,1.2,9.7,M,5.9,M,,0000*77
$GPGLL,6320.1231,N,17321.4303,W,000040.000,A,A*4B
$GPRMC,000040.000,A,6320.1231,N,17321.4303,W,10.10,272.26,110822,,,A*47
$GPVTG,272.26,T,,M,10.10,N,18.7,K,A*00
$GPZDA,000041.000,11,08,2022,,*59
$GPGGA,000041.000,6320.1233,N,17321.4367,W,1,08,1.2,9.8,M,5.9,M,,0000*79
$GPGLL,6320.1233,N,17321.4367,W,000041.000,A,A*4A
$GPRMC,000041.000,A,6320.1233,N,17321.4367,W,10.43,274.53,110822,,,A*44
$GPVTG,274.53,T,,M,10.43,N,19.3,K,A*07
$GPZDA,000042.000,11,08,2022,,*5A
$GPGGA,000042.000,6320.1235,N,17321.4431,W,1,08,1.2,9.6,M,5.9,M,,0000*76
$GPGLL,6320.1235,N,17321.4431,W,000042.000,A,A*4B
$GPRMC,000042.000,A,6320.1235,N,17321.4431,W,10.39,273.25,110822,,,A*4E
$GPZDA,000043.000,11,08,2022,,*5B
$GPGGA,000043.000,6320.1236,N,17321.4496,W,1,08,1.2,9.6,M,5.9,M,,0000*79
$GPGLL,6320.1236,N,17321.4496,W,000043.000,A,A*44
$GPRMC,000043.000,A,6320.1236,N,17321.4496,W,10.38,268.77,110822,,,A*4D
$GPVTG,268.77,T,,M,10.38,N,19.2,K,A*01
$GPZDA,000044.000,11,08,2022,,*5C
$GPGGA,000044.000,6320.1235,N,17321.4561,W,1,08,1.2,9.7,M,5.9,M,,0000*75
$GPGLL,6320.1235,N,17321.4561,W,000044.000,A,A*49
$GPRMC,000044.000,A,6320.1235,N,17321.4561,W,10.25,267.87,110822,,,A*4C
$GPVTG,267.87,T,,M,10.25,N,19.0,K,A*0F
$GPZDA,000045.000,11,08,2022,,*5D
$GPGGA,000045.000,6320.1236,N,17321.4625,W,1,08,1.2,10.0,M,5.9,M,,0000*4B
$GPGLL,6320.1236,N,17321.4625,W,000045.000,A,A*48
$GPRMC,000045.000,A,6320.1236,N,17321.4625,W,10.15,272.32,110822,,,A*44
$GPVTG,272.32,T,,M,10.15,N,18.8,K,A*0F
:::msg fm client 99: MarportCommander on NOAA-PC - v0.9.55.0 - 20220811-000046Z
$GPZDA,000046.000,11,08,2022,,*5E
$GPGGA,000046.000,6320.1239,N,17321.4688,W,1,08,1.2,10.6,M,5.9,M,,0000*46
$GPGLL,6320.1239,N,17321.4688,W,000046.000,A,A*43
$GPRMC,000046.000,A,6320.1239,N,17321.4688,W,10.06,276.41,110822,,,A*4D
$GPVTG,276.41,T,,M,10.06,N,18.6,K,A*03
$GPZDA,000047.000,11,08,2022,,*5F
$GPGGA,000047.000,6320.1242,N,17321.4753,W,1,08,1.2,10.6,M,5.9,M,,0000*4C
$GPGLL,6320.1242,N,17321.4753,W,000047.000,A,A*49
$GPRMC,000047.000,A,6320.1242,N,17321.4753,W,10.83,277.46,110822,,,A*4C
$GPVTG,277.46,T,,M,10.83,N,20.1,K,A*04
$GPZDA,000048.000,11,08,2022,,*50
$GPGGA,000048.000,6320.1245,N,17321.4818,W,1,08,1.2,10.4,M,5.9,M,,0000*46
$GPGLL,6320.1245,N,17321.4818,W,000048.000,A,A*41
$GPRMC,000048.000,A,6320.1245,N,17321.4818,W,10.35,272.75,110822,,,A*4C
$GPVTG,272.75,T,,M,10.35,N,19.2,K,A*05
$GPZDA,000049.000,11,08,2022,,*51
$GPGGA,000049.000,6320.1245,N,17321.4882,W,1,08,1.2,10.3,M,5.9,M,,0000*43
$GPGLL,6320.1245,N,17321.4882,W,000049.000,A,A*43
$GPRMC,000049.000,A,6320.1245,N,17321.4882,W,10.14,268.38,110822,,,A*4F
:::msg fm client 98: C:\Program Files\Marport CommandView3\CommandView.exe on NOAA-PC -  - 16:00:49
$GPVTG,268.38,T,,M,10.14,N,18.8,K,A*0F
$GPZDA,000050.000,11,08,2022,,*59
$GPGGA,000050.000,6320.1244,N,17321.4944,W,1,08,1.2,10.4,M,5.9,M,,0000*46
$GPGLL,6320.1244,N,17321.4944,W,000050.000,A,A*41
$GPRMC,000050.000,A,6320.1244,N,17321.4944,W,9.85,264.33,110822,,,A*7A
$GPVTG,264.33,T,,M,9.85,N,18.2,K,A*32
$GPZDA,000051.000,11,08,2022,,*58
$GPGGA,000051.000,6320.1243,N,17321.5007,W,1,09,1.0,10.9,M,5.9,M,,0000*41
$GPGLL,6320.1243,N,17321.5007,W,000051.000,A,A*48
$GPRMC,000051.000,A,6320.1243,N,17321.5007,W,10.12,270.80,110822,,,A*48
$GPVTG,270.80,T,,M,10.12,N,18.7,K,A*0C
$GPZDA,000052.000,11,08,2022,,*5B
$GPGGA,000052.000,6320.1245,N,17321.5071,W,1,09,1.0,11.2,M,5.9,M,,0000*4F
$GPGLL,6320.1245,N,17321.5071,W,000052.000,A,A*4C
$GPRMC,000052.000,A,6320.1245,N,17321.5071,W,10.38,274.23,110822,,,A*49
$GPVTG,274.23,T,,M,10.38,N,19.2,K,A*0D
$GPZDA,000053.000,11,08,2022,,*5A
$GPGGA,000053.000,6320.1247,N,17321.5135,W,1,09,1.0,11.3,M,5.9,M,,0000*4C
$GPGLL,6320.1247,N,17321.5135,W,000053.000,A,A*4E
$GPRMC,000053.000,A,6320.1247,N,17321.5135,W,10.39,273.98,110822,,,A*4D
$GPVTG,273.98,T,,M,10.39,N,19.2,K,A*0B
$GPZDA,000054.000,11,08,2022,,*5D
$GPGGA,000054.000,6320.1248,N,17321.5200,W,1,09,1.0,11.0,M,5.9,M,,0000*42
$GPGLL,6320.1248,N,17321.5200,W,000054.000,A,A*43
$GPRMC,000054.000,A,6320.1248,N,17321.5200,W,10.43,271.74,110822,,,A*4D
$GPVTG,271.74,T,,M,10.43,N,19.3,K,A*07
$GPZDA,000055.000,11,08,2022,,*5C
$GPGGA,000055.000,6320.1248,N,17321.5264,W,1,09,1.0,11.1,M,5.9,M,,0000*40
$GPGLL,6320.1248,N,17321.5264,W,000055.000,A,A*40
$GPRMC,000055.000,A,6320.1248,N,17321.5264,W,10.06,267.10,110822,,,A*4A
$GPVTG,267.10,T,,M,10.06,N,18.6,K,A*07
:::msg fm client 99: MarportCommander on NOAA-PC - v0.9.55.0 - 20220811-000056Z
$GPZDA,000056.000,11,08,2022,,*5F
$GPGGA,000056.000,6320.1247,N,17321.5327,W,1,09,1.0,11.4,M,5.9,M,,0000*4F
$GPGLL,6320.1247,N,17321.5327,W,000056.000,A,A*4A
$GPRMC,000056.000,A,6320.1247,N,17321.5327,W,10.23,267.92,110822,,,A*4D
$GPVTG,267.92,T,,M,10.23,N,18.9,K,A*05
$GPZDA,000057.000,11,08,2022,,*5E
$GPGGA,000057.000,6320.1248,N,17321.5391,W,1,09,1.0,11.6,M,5.9,M,,0000*4E
$GPGLL,6320.1248,N,17321.5391,W,000057.000,A,A*49
$GPRMC,000057.000,A,6320.1248,N,17321.5391,W,10.55,272.38,110822,,,A*4B
$GPVTG,272.38,T,,M,10.55,N,19.5,K,A*0D
$GPZDA,000058.000,11,08,2022,,*51
$GPGGA,000058.000,6320.1249,N,17321.5456,W,1,09,1.0,11.8,M,5.9,M,,0000*42
$GPGLL,6320.1249,N,17321.5456,W,000058.000,A,A*4B
$GPRMC,000058.000,A,6320.1249,N,17321.5456,W,10.54,273.91,110822,,,A*4A
$GPVTG,273.91,T,,M,10.54,N,19.5,K,A*0E
$GPZDA,000059.000,11,08,2022,,*50
$GPGGA,000059.000,6320.1251,N,17321.5521,W,1,09,1.0,11.9,M,5.9,M,,0000*4A
$GPGLL,6320.1251,N,17321.5521,W,000059.000,A,A*42
$GPRMC,000059.000,A,6320.1251,N,17321.5521,W,10.32,273.66,110822,,,A*4B
$GPVTG,273.66,T,,M,10.32,N,19.1,K,A*02
:::msg fm client 98: C:\Program Files\Marport CommandView3\CommandView.exe on NOAA-PC -  - 16:00:59
$GPZDA,000100.000,11,08,2022,,*5D
$GPGGA,000100.000,6320.1252,N,17321.5585,W,1,09,1.0,11.7,M,5.9,M,,0000*44
$GPGLL,6320.1252,N,17321.5585,W,000100.000,A,A*42
$GPRMC,000100.000,A,6320.1252,N,17321.5585,W,10.39,271.75,110822,,,A*40
$GPVTG,271.75,T,,M,10.39,N,19.2,K,A*0A
$GPZDA,000101.000,11,08,2022,,*5C
$GPGGA,000101.000,6320.1253,N,17321.5650,W,1,09,1.0,11.5,M,5.9,M,,0000*4D
$GPGLL,6320.1253,N,17321.5650,W,000101.000,A,A*49
$GPRMC,000101.000,A,6320.1253,N,17321.5650,W,10.49,271.11,110822,,,A*4E
$GPVTG,271.11,T,,M,10.49,N,19.4,K,A*09
$GPZDA,000102.000,11,08,2022,,*5F
$GPGGA,000102.000,6320.1254,N,17321.5714,W,1,09,1.0,11.6,M,5.9,M,,0000*4B
$GPGLL,6320.1254,N,17321.5714,W,000102.000,A,A*4C
$GPRMC,000102.000,A,6320.1254,N,17321.5714,W,10.21,269.91,110822,,,A*44
$GPVTG,269.91,T,,M,10.21,N,18.9,K,A*0A
$GPZDA,000103.000,11,08,2022,,*5E
$GPGGA,000103.000,6320.1254,N,17321.5778,W,1,09,1.0,11.7,M,5.9,M,,0000*41
$GPGLL,6320.1254,N,17321.5778,W,000103.000,A,A*47
$GPRMC,000103.000,A,6320.1254,N,17321.5778,W,10.40,269.93,110822,,,A*4A
$GPVTG,269.93,T,,M,10.40,N,19.3,K,A*04
$GPZDA,000104.000,11,08,2022,,*59
$GPGGA,000104.000,6320.1254,N,17321.5843,W,1,09,1.0,11.9,M,5.9,M,,0000*4F
$GPGLL,6320.1254,N,17321.5843,W,000104.000,A,A*47
$GPRMC,000104.000,A,6320.1254,N,17321.5843,W,10.70,270.85,110822,,,A*46
$GPVTG,270.85,T,,M,10.70,N,19.8,K,A*03
$GPZDA,000105.000,11,08,2022,,*58
$GPGGA,000105.000,6320.1255,N,17321.5908,W,1,09,1.0,12.3,M,5.9,M,,0000*48
$GPGLL,6320.1255,N,17321.5908,W,000105.000,A,A*49
$GPRMC,000105.000,A,6320.1255,N,17321.5908,W,10.16,275.01,110822,,,A*41
$GPVTG,275.01,T,,M,10.16,N,18.8,K,A*0B
:::msg fm client 99: MarportCommander on NOAA-PC - v0.9.55.0 - 20220811-000106Z
$GPZDA,000106.000,11,08,2022,,*5B
$GPGGA,000106.000,6320.1258,N,17321.5971,W,1,09,1.0,12.7,M,5.9,M,,0000*4C
$GPGLL,6320.1258,N,17321.5971,W,000106.000,A,A*49
$GPRMC,000106.000,A,6320.1258,N,17321.5971,W,10.20,275.86,110822,,,A*4B
$GPVTG,275.86,T,,M,10.20,N,18.9,K,A*00
$GPZDA,000107.000,11,08,2022,,*5A
$GPGGA,000107.000,6320.1261,N,17321.6036,W,1,09,1.0,12.8,M,5.9,M,,0000*41
$GPGLL,6320.1261,N,17321.6036,W,000107.000,A,A*4B
$GPRMC,000107.000,A,6320.1261,N,17321.6036,W,10.79,273.86,110822,,,A*43
$GPVTG,273.86,T,,M,10.79,N,20.0,K,A*08
$GPZDA,000108.000,11,08,2022,,*55
$01TEH,3.1,m*19
$GPGGA,000108.000,6320.1262,N,17321.6102,W,1,10,0.9,12.5,M,5.9,M,,0000*46
$GPGLL,6320.1262,N,17321.6102,W,000108.000,A,A*41
$GPRMC,000108.000,A,6320.1262,N,17321.6102,W,10.48,270.24,110822,,,A*40
$GPVTG,270.24,T,,M,10.48,N,19.4,K,A*0F
$GPZDA,000109.000,11,08,2022,,*54
$GPGGA,000109.000,6320.1262,N,17321.6164,W,1,10,0.9,12.7,M,5.9,M,,0000*45
$GPGLL,6320.1262,N,17321.6164,W,000109.000,A,A*40
$GPRMC,000109.000,A,6320.1262,N,17321.6164,W,9.65,269.47,110822,,,A*7B
$GPVTG,269.47,T,,M,9.65,N,17.9,K,A*36
:::msg fm client 98: C:\Program Files\Marport CommandView3\CommandView.exe on NOAA-PC -  - 16:01:09
$GPZDA,000110.000,11,08,2022,,*5C
$GPGGA,000110.000,6320.1263,N,17321.6225,W,1,10,0.9,13.4,M,5.9,M,,0000*48
$GPGLL,6320.1263,N,17321.6225,W,000110.000,A,A*4F
$GPRMC,000110.000,A,6320.1263,N,17321.6225,W,9.84,274.09,110822,,,A*7D
$GPVTG,274.09,T,,M,9.84,N,18.2,K,A*3B
$GPZDA,000111.000,11,08,2022,,*5D
$GPGGA,000111.000,6320.1265,N,17321.6290,W,1,10,0.9,13.4,M,5.9,M,,0000*41
$GPGLL,6320.1265,N,17321.6290,W,000111.000,A,A*46
$GPRMC,000111.000,A,6320.1265,N,17321.6290,W,11.20,275.00,110822,,,A*4B
$GPVTG,275.00,T,,M,11.20,N,20.8,K,A*05
$GPZDA,000112.000,11,08,2022,,*5E
$GPGGA,000112.000,6320.1267,N,17321.6358,W,1,10,0.9,12.4,M,5.9,M,,0000*44
$GPGLL,6320.1267,N,17321.6358,W,000112.000,A,A*42
$GPRMC,000112.000,A,6320.1267,N,17321.6358,W,10.61,274.35,110822,,,A*4C
$GPVTG,274.35,T,,M,10.61,N,19.7,K,A*03
$GPZDA,000113.000,11,08,2022,,*5F
$GPGGA,000113.000,6320.1269,N,17321.6419,W,1,10,0.9,12.3,M,5.9,M,,0000*4E
$GPGLL,6320.1269,N,17321.6419,W,000113.000,A,A*4F
$GPRMC,000113.000,A,6320.1269,N,17321.6419,W,9.27,272.97,110822,,,A*75
$GPVTG,272.97,T,,M,9.27,N,17.2,K,A*3C
$GPZDA,000114.000,11,08,2022,,*58
$GPGGA,000114.000,6320.1271,N,17321.6476,W,1,10,0.9,13.5,M,5.9,M,,0000*4E
$GPGLL,6320.1271,N,17321.6476,W,000114.000,A,A*48
$GPRMC,000114.000,A,6320.1271,N,17321.6476,W,9.19,272.02,110822,,,A*73
$GPVTG,272.02,T,,M,9.19,N,17.0,K,A*3F
$GPZDA,000115.000,11,08,2022,,*59
$GPGGA,000115.000,6320.1271,N,17321.6538,W,1,10,0.9,13.4,M,5.9,M,,0000*45
$GPGLL,6320.1271,N,17321.6538,W,000115.000,A,A*42
$GPRMC,000115.000,A,6320.1271,N,17321.6538,W,10.67,272.72,110822,,,A*4F
$GPVTG,272.72,T,,M,10.67,N,19.8,K,A*0F
:::msg fm client 99: MarportCommander on NOAA-PC - v0.9.55.0 - 20220811-000116Z
$GPZDA,000116.000,11,08,2022,,*5A
$GPGGA,000116.000,6320.1272,N,17321.6604,W,1,10,0.9,12.6,M,5.9,M,,0000*4A
$GPGLL,6320.1272,N,17321.6604,W,000116.000,A,A*4E
$GPRMC,000116.000,A,6320.1272,N,17321.6604,W,10.70,274.93,110822,,,A*4C
$GPVTG,274.93,T,,M,10.70,N,19.8,K,A*00
$GPZDA,000117.000,11,08,2022,,*5B
$GPGGA,000117.000,6320.1274,N,17321.6668,W,1,10,0.9,12.3,M,5.9,M,,0000*42
$GPGLL,6320.1274,N,17321.6668,W,000117.000,A,A*43
$GPRMC,000117.000,A,6320.1274,N,17321.6668,W,9.93,273.00,110822,,,A*79
$GPVTG,273.00,T,,M,9.93,N,18.4,K,A*35
$GPZDA,000118.000,11,08,2022,,*54
$GPGGA,000118.000,6320.1276,N,17321.6729,W,1,10,0.9,12.4,M,5.9,M,,0000*4C
$GPGLL,6320.1276,N,17321.6729,W,000118.000,A,A*4A
$GPRMC,000118.000,A,6320.1276,N,17321.6729,W,9.86,271.94,110822,,,A*7B
$GPVTG,271.94,T,,M,9.86,N,18.3,K,A*39
$GPZDA,000119.000,11,08,2022,,*55
$GPGGA,000119.000,6320.1277,N,17321.6791,W,1,10,0.9,12.7,M,5.9,M,,0000*4C
$GPGLL,6320.1277,N,17321.6791,W,000119.000,A,A*49
$GPRMC,000119.000,A,6320.1277,N,17321.6791,W,10.19,273.82,110822,,,A*43
$GPVTG,273.82,T,,M,10.19,N,18.9,K,A*08
:::msg fm client 98: C:\Program Files\Marport CommandView3\CommandView.exe on NOAA-PC -  - 16:01:19
$GPZDA,000120.000,11,08,2022,,*5F
$GPGGA,000120.000,6320.1278,N,17321.6853,W,1,10,0.9,12.8,M,5.9,M,,0000*47
$GPGLL,6320.1278,N,17321.6853,W,000120.000,A,A*4D
$GPRMC,000120.000,A,6320.1278,N,17321.6853,W,10.11,271.69,110822,,,A*48
$GPVTG,271.69,T,,M,10.11,N,18.7,K,A*09
$GPZDA,000121.000,11,08,2022,,*5E
$GPGGA,000121.000,6320.1278,N,17321.6917,W,1,10,0.9,12.5,M,5.9,M,,0000*4A
$GPGLL,6320.1278,N,17321.6917,W,000121.000,A,A*4D
$GPRMC,000121.000,A,6320.1278,N,17321.6917,W,10.18,271.21,110822,,,A*4D
$GPVTG,271.21,T,,M,10.18,N,18.9,K,A*02
$GPZDA,000122.000,11,08,2022,,*5D
$GPGGA,000122.000,6320.1278,N,17321.6981,W,1,10,0.9,12.0,M,5.9,M,,0000*43
$GPGLL,6320.1278,N,17321.6981,W,000122.000,A,A*41
$GPRMC,000122.000,A,6320.1278,N,17321.6981,W,10.56,270.26,110822,,,A*4D
$GPVTG,270.26,T,,M,10.56,N,19.6,K,A*00
$GPZDA,000123.000,11,08,2022,,*5C
$GPGGA,000123.000,6320.1279,N,17321.7045,W,1,10,0.9,12.0,M,5.9,M,,0000*43
$GPGLL,6320.1279,N,17321.7045,W,000123.000,A,A*41
$GPRMC,000123.000,A,6320.1279,N,17321.7045,W,10.10,270.77,110822,,,A*4B
$GPVTG,270.77,T,,M,10.10,N,18.7,K,A*06
$GPZDA,000124.000,11,08,2022,,*5B
$GPGGA,000124.000,6320.1280,N,17321.7108,W,1,10,0.9,12.3,M,5.9,M,,0000*49
$GPGLL,6320.1280,N,17321.7108,W,000124.000,A,A*48
$GPRMC,000124.000,A,6320.1280,N,17321.7108,W,10.23,272.52,110822,,,A*47
$GPVTG,272.52,T,,M,10.23,N,18.9,K,A*0D
$GPZDA,000125.000,11,08,2022,,*5A
$GPGGA,000125.000,6320.1282,N,17321.7170,W,1,10,0.9,12.8,M,5.9,M,,0000*4E
$GPGLL,6320.1282,N,17321.7170,W,000125.000,A,A*44
$GPRMC,000125.000,A,6320.1282,N,17321.7170,W,10.02,273.74,110822,,,A*4D
$GPVTG,273.74,T,,M,10.02,N,18.6,K,A*04
:::msg fm client 99: MarportCommander on NOAA-PC - v0.9.55.0 - 20220811-000126Z
$GPZDA,000126.000,11,08,2022,,*59
$GPGGA,000126.000,6320.1283,N,17321.7233,W,1,10,0.9,12.8,M,5.9,M,,0000*48
$GPGLL,6320.1283,N,17321.7233,W,000126.000,A,A*42
$GPRMC,000126.000,A,6320.1283,N,17321.7233,W,10.33,272.36,110822,,,A*4E
$GPVTG,272.36,T,,M,10.33,N,19.1,K,A*07
$GPZDA,000127.000,11,08,2022,,*58
$GPGGA,000127.000,6320.1283,N,17321.7296,W,1,10,0.9,12.5,M,5.9,M,,0000*4B
$GPGLL,6320.1283,N,17321.7296,W,000127.000,A,A*4C
$GPRMC,000127.000,A,6320.1283,N,17321.7296,W,10.10,269.73,110822,,,A*4A
$GPVTG,269.73,T,,M,10.10,N,18.7,K,A*0A
$GPZDA,000128.000,11,08,2022,,*57
$GPGGA,000128.000,6320.1283,N,17321.7360,W,1,10,0.9,12.1,M,5.9,M,,0000*48
$GPGLL,6320.1283,N,17321.7360,W,000128.000,A,A*4B
$GPRMC,000128.000,A,6320.1283,N,17321.7360,W,10.07,271.08,110822,,,A*4E
$GPVTG,271.08,T,,M,10.07,N,18.7,K,A*09
$GPZDA,000129.000,11,08,2022,,*56
$GPGGA,000129.000,6320.1283,N,17321.7421,W,1,10,0.9,12.2,M,5.9,M,,0000*48
$GPGLL,6320.1283,N,17321.7421,W,000129.000,A,A*48
$GPRMC,000129.000,A,6320.1283,N,17321.7421,W,9.77,268.88,110822,,,A*72
$GPVTG,268.88,T,,M,9.77,N,18.1,K,A*30
:::msg fm client 98: C:\Program Files\Marport CommandView3\CommandView.exe on NOAA-PC -  - 16:01:30
$GPZDA,000130.000,11,08,2022,,*5E
$GPGGA,000130.000,6320.1283,N,17321.7483,W,1,10,0.9,12.3,M,5.9,M,,0000*49
$GPGLL,6320.1283,N,17321.7483,W,000130.000,A,A*48
$GPRMC,000130.000,A,6320.1283,N,17321.7483,W,10.42,270.76,110822,,,A*44
$GPVTG,270.76,T,,M,10.42,N,19.3,K,A*05
$GPZDA,000131.000,11,08,2022,,*5F
$GPGGA,000131.000,6320.1283,N,17321.7547,W,1,10,0.9,12.4,M,5.9,M,,0000*46
$GPGLL,6320.1283,N,17321.7547,W,000131.000,A,A*40
$GPRMC,000131.000,A,6320.1283,N,17321.7547,W,10.30,270.97,110822,,,A*46
$GPVTG,270.97,T,,M,10.30,N,19.1,K,A*0D
$GPZDA,000132.000,11,08,2022,,*5C
$GPGGA,000132.000,6320.1285,N,17321.7610,W,1,10,0.9,12.6,M,5.9,M,,0000*40
$GPGLL,6320.1285,N,17321.7610,W,000132.000,A,A*44
$GPRMC,000132.000,A,6320.1285,N,17321.7610,W,10.02,274.43,110822,,,A*4E
$GPVTG,274.43,T,,M,10.02,N,18.6,K,A*07
$GPZDA,000133.000,11,08,2022,,*5D
$GPGGA,000133.000,6320.1286,N,17321.7673,W,1,10,0.9,12.4,M,5.9,M,,0000*45
$GPGLL,6320.1286,N,17321.7673,W,000133.000,A,A*43
$GPRMC,000133.000,A,6320.1286,N,17321.7673,W,10.51,274.24,110822,,,A*4E
$GPVTG,274.24,T,,M,10.51,N,19.5,K,A*02
$GPZDA,000134.000,11,08,2022,,*5A
$GPGGA,000134.000,6320.1288,N,17321.7736,W,1,10,0.9,12.1,M,5.9,M,,0000*49
$GPGLL,6320.1288,N,17321.7736,W,000134.000,A,A*4A
$GPRMC,000134.000,A,6320.1288,N,17321.7736,W,10.22,272.17,110822,,,A*45
$GPVTG,272.17,T,,M,10.22,N,18.9,K,A*0D
$GPZDA,000135.000,11,08,2022,,*5B
$GPGGA,000135.000,6320.1288,N,17321.7799,W,1,10,0.9,12.0,M,5.9,M,,0000*4C
$GPGLL,6320.1288,N,17321.7799,W,000135.000,A,A*4E
$GPRMC,000135.000,A,6320.1288,N,17321.7799,W,10.08,269.30,110822,,,A*46
$GPVTG,269.30,T,,M,10.08,N,18.7,K,A*04
:::msg fm client 99: MarportCommander on NOAA-PC - v0.9.55.0 - 20220811-000136Z
$GPZDA,000136.000,11,08,2022,,*58
$GPGGA,000136.000,6320.1287,N,17321.7863,W,1,10,0.9,12.0,M,5.9,M,,0000*4A
$GPGLL,6320.1287,N,17321.7863,W,000136.000,A,A*48
$GPRMC,000136.000,A,6320.1287,N,17321.7863,W,10.61,268.30,110822,,,A*4E
$GPVTG,268.30,T,,M,10.61,N,19.7,K,A*0B
$GPZDA,000137.000,11,08,2022,,*59
$GPGGA,000137.000,6320.1286,N,17321.7926,W,1,10,0.9,12.2,M,5.9,M,,0000*48
$GPGLL,6320.1286,N,17321.7926,W,000137.000,A,A*48
$GPRMC,000137.000,A,6320.1286,N,17321.7926,W,10.05,271.08,110822,,,A*4F
$GPVTG,271.08,T,,M,10.05,N,18.6,K,A*0A
$GPZDA,000138.000,11,08,2022,,*56
$GPGGA,000138.000,6320.1288,N,17321.7987,W,1,10,0.9,12.8,M,5.9,M,,0000*48
$GPGLL,6320.1288,N,17321.7987,W,000138.000,A,A*42
$GPRMC,000138.000,A,6320.1288,N,17321.7987,W,9.74,275.76,110822,,,A*76
$GPVTG,275.76,T,,M,9.74,N,18.0,K,A*3F
$GPZDA,000139.000,11,08,2022,,*57
$GPGGA,000139.000,6320.1291,N,17321.8049,W,1,10,0.9,12.8,M,5.9,M,,0000*45
$GPGLL,6320.1291,N,17321.8049,W,000139.000,A,A*4F
$GPRMC,000139.000,A,6320.1291,N,17321.8049,W,10.56,276.92,110822,,,A*4A
$GPVTG,276.92,T,,M,10.56,N,19.6,K,A*09
:::msg fm client 98: C:\Program Files\Marport CommandView3\CommandView.exe on NOAA-PC -  - 16:01:40
$GPZDA,000140.000,11,08,2022,,*59
$GPGGA,000140.000,6320.1293,N,17321.8114,W,1,10,0.9,12.2,M,5.9,M,,0000*4A
$GPGLL,6320.1293,N,17321.8114,W,000140.000,A,A*4A
$GPRMC,000140.000,A,6320.1293,N,17321.8114,W,10.58,273.58,110822,,,A*42
$GPVTG,273.58,T,,M,10.58,N,19.6,K,A*04
$GPZDA,000141.000,11,08,2022,,*58
$GPGGA,000141.000,6320.1293,N,17321.8176,W,1,10,0.9,12.2,M,5.9,M,,0000*4F
$GPGLL,6320.1293,N,17321.8176,W,000141.000,A,A*4F
$GPRMC,000141.000,A,6320.1293,N,17321.8176,W,9.47,267.29,110822,,,A*72
$GPVTG,267.29,T,,M,9.47,N,17.5,K,A*3C
$GPZDA,000142.000,11,08,2022,,*5B
$GPGGA,000142.000,6320.1293,N,17321.8234,W,1,10,0.9,12.9,M,5.9,M,,0000*42
$GPGLL,6320.1293,N,17321.8234,W,000142.000,A,A*49
$GPRMC,000142.000,A,6320.1293,N,17321.8234,W,8.98,269.36,110822,,,A*77
$GPVTG,269.36,T,,M,8.98,N,16.6,K,A*3D
$GPZDA,000143.000,11,08,2022,,*5A
$GPGGA,000143.000,6320.1293,N,17321.8294,W,1,10,0.9,13.0,M,5.9,M,,0000*41
$GPGLL,6320.1293,N,17321.8294,W,000143.000,A,A*42
$GPRMC,000143.000,A,6320.1293,N,17321.8294,W,10.44,273.38,110822,,,A*41
$GPVTG,273.38,T,,M,10.44,N,19.3,K,A*0A
$GPZDA,000144.000,11,08,2022,,*5D
$GPGGA,000144.000,6320.1295,N,17321.8360,W,1,10,0.9,12.7,M,5.9,M,,0000*4C
$GPGLL,6320.1295,N,17321.8360,W,000144.000,A,A*49
$GPRMC,000144.000,A,6320.1295,N,17321.8360,W,10.68,275.90,110822,,,A*40
$GPVTG,275.90,T,,M,10.68,N,19.8,K,A*0B
$GPZDA,000145.000,11,08,2022,,*5C
$GPGGA,000145.000,6320.1297,N,17321.8424,W,1,10,0.9,11.9,M,5.9,M,,0000*45
$GPGLL,6320.1297,N,17321.8424,W,000145.000,A,A*4D
$GPRMC,000145.000,A,6320.1297,N,17321.8424,W,10.03,272.85,110822,,,A*4A
$GPVTG,272.85,T,,M,10.03,N,18.6,K,A*0A
:::msg fm client 99: MarportCommander on NOAA-PC - v0.9.55.0 - 20220811-000146Z
$GPZDA,000146.000,11,08,2022,,*5F
$GPGGA,000146.000,6320.1297,N,17321.8484,W,1,10,0.9,11.6,M,5.9,M,,0000*43
$GPGLL,6320.1297,N,17321.8484,W,000146.000,A,A*44
$GPRMC,000146.000,A,6320.1297,N,17321.8484,W,9.31,266.00,110822,,,A*72
$GPVTG,266.00,T,,M,9.31,N,17.2,K,A*30
$GPZDA,000147.000,11,08,2022,,*5E
$GPGGA,000147.000,6320.1295,N,17321.8543,W,1,10,0.9,11.8,M,5.9,M,,0000*44
$GPGLL,6320.1295,N,17321.8543,W,000147.000,A,A*4D
$GPRMC,000147.000,A,6320.1295,N,17321.8543,W,9.67,267.88,110822,,,A*79
$GPVTG,267.88,T,,M,9.67,N,17.9,K,A*39
$GPZDA,000148.000,11,08,2022,,*51
$GPGGA,000148.000,6320.1296,N,17321.8606,W,1,10,0.9,11.6,M,5.9,M,,0000*44
$GPGLL,6320.1296,N,17321.8606,W,000148.000,A,A*43
$GPRMC,000148.000,A,6320.1296,N,17321.8606,W,10.70,273.61,110822,,,A*4B
$GPVTG,273.61,T,,M,10.70,N,19.8,K,A*0A
$GPZDA,000149.000,11,08,2022,,*50
$GPGGA,000149.000,6320.1297,N,17321.8672,W,1,10,0.9,11.0,M,5.9,M,,0000*41
$GPGLL,6320.1297,N,17321.8672,W,000149.000,A,A*40
$GPRMC,000149.000,A,6320.1297,N,17321.8672,W,10.56,274.08,110822,,,A*44
$GPVTG,274.08,T,,M,10.56,N,19.6,K,A*08
:::msg fm client 98: C:\Program Files\Marport CommandView3\CommandView.exe on NOAA-PC -  - 16:01:50
$GPZDA,000150.000,11,08,2022,,*58
$GPGGA,000150.000,6320.1298,N,17321.8735,W,1,10,0.9,10.7,M,5.9,M,,0000*42
$GPGLL,6320.1298,N,17321.8735,W,000150.000,A,A*45
$GPRMC,000150.000,A,6320.1298,N,17321.8735,W,9.80,270.72,110822,,,A*7B
$GPVTG,270.72,T,,M,9.80,N,18.1,K,A*34
$GPZDA,000151.000,11,08,2022,,*59
$GPGGA,000151.000,6320.1298,N,17321.8794,W,1,10,0.9,10.7,M,5.9,M,,0000*48
$GPGLL,6320.1298,N,17321.8794,W,000151.000,A,A*4F
$GPRMC,000151.000,A,6320.1298,N,17321.8794,W,9.29,266.76,110822,,,A*71
$GPVTG,266.76,T,,M,9.29,N,17.2,K,A*38
$GPZDA,000152.000,11,08,2022,,*5A
$GPGGA,000152.000,6320.1297,N,17321.8854,W,1,10,0.9,10.9,M,5.9,M,,0000*49
$GPGLL,6320.1297,N,17321.8854,W,000152.000,A,A*40
$GPRMC,000152.000,A,6320.1297,N,17321.8854,W,10.14,269.88,110822,,,A*46
$GPVTG,269.88,T,,M,10.14,N,18.8,K,A*05
$GPZDA,000153.000,11,08,2022,,*5B
$GPGGA,000153.000,6320.1297,N,17321.8918,W,1,10,0.9,10.8,M,5.9,M,,0000*40
$GPGLL,6320.1297,N,17321.8918,W,000153.000,A,A*48
$GPRMC,000153.000,A,6320.1297,N,17321.8918,W,10.61,271.98,110822,,,A*44
$GPVTG,271.98,T,,M,10.61,N,19.7,K,A*01
$GPZDA,000154.000,11,08,2022,,*5C
$GPGGA,000154.000,6320.1298,N,17321.8983,W,1,10,0.9,10.6,M,5.9,M,,0000*44
$GPGLL,6320.1298,N,17321.8983,W,000154.000,A,A*42
$GPRMC,000154.000,A,6320.1298,N,17321.8983,W,10.25,272.96,110822,,,A*43
$GPVTG,272.96,T,,M,10.25,N,19.0,K,A*0B
$GPZDA,000155.000,11,08,2022,,*5D
$GPGGA,000155.000,6320.1300,N,17321.9043,W,1,10,0.9,10.7,M,5.9,M,,0000*40
$GPGLL,6320.1300,N,17321.9043,W,000155.000,A,A*47
$GPRMC,000155.000,A,6320.1300,N,17321.9043,W,9.49,272.43,110822,,,A*7C
$GPVTG,272.43,T,,M,9.49,N,17.6,K,A*39
:::msg fm client 99: MarportCommander on NOAA-PC - v0.9.55.0 - 20220811-000156Z
$GPZDA,000156.000,11,08,2022,,*5E
$GPGGA,000156.000,6320.1301,N,17321.9103,W,1,10,0.9,11.1,M,5.9,M,,0000*40
$GPGLL,6320.1301,N,17321.9103,W,000156.000,A,A*40
$GPRMC,000156.000,A,6320.1301,N,17321.9103,W,9.78,271.35,110822,,,A*7B
$GPVTG,271.35,T,,M,9.78,N,18.1,K,A*31
$GPZDA,000157.000,11,08,2022,,*5F
$GPGGA,000157.000,6320.1301,N,17321.9166,W,1,10,0.9,11.1,M,5.9,M,,0000*42
$GPGLL,6320.1301,N,17321.9166,W,000157.000,A,A*42
$GPRMC,000157.000,A,6320.1301,N,17321.9166,W,10.44,270.02,110822,,,A*4B
$GPVTG,270.02,T,,M,10.44,N,19.3,K,A*00
$GPZDA,000158.000,11,08,2022,,*50
$GPGGA,000158.000,6320.1301,N,17321.9231,W,1,10,0.9,10.6,M,5.9,M,,0000*4A
$GPGLL,6320.1301,N,17321.9231,W,000158.000,A,A*4C
$GPRMC,000158.000,A,6320.1301,N,17321.9231,W,10.31,268.76,110822,,,A*4D
$GPVTG,268.76,T,,M,10.31,N,19.1,K,A*0A
$GPZDA,000159.000,11,08,2022,,*51
$GPGGA,000159.000,6320.1301,N,17321.9294,W,1,10,0.9,10.6,M,5.9,M,,0000*44
$GPGLL,6320.1301,N,17321.9294,W,000159.000,A,A*42
$GPRMC,000159.000,A,6320.1301,N,17321.9294,W,10.04,269.46,110822,,,A*47
$GPVTG,269.46,T,,M,10.04,N,18.6,K,A*08
:::msg fm client 98: C:\Program Files\Marport CommandView3\CommandView.exe on NOAA-PC -  - 16:02:00
$GPZDA,000200.000,11,08,2022,,*5E
$GPGGA,000200.000,6320.1301,N,17321.9355,W,1,10,0.9,10.9,M,5.9,M,,0000*48
$GPGLL,6320.1301,N,17321.9355,W,000200.000,A,A*41
$GPRMC,000200.000,A,6320.1301,N,17321.9355,W,9.65,271.28,110822,,,A*7A
$GPVTG,271.28,T,,M,9.65,N,17.9,K,A*36
$GPZDA,000201.000,11,08,2022,,*5F
$GPGGA,000201.000,6320.1303,N,17321.9416,W,1,10,0.9,11.3,M,5.9,M,,0000*40
$GPGLL,6320.1303,N,17321.9416,W,000201.000,A,A*42
$GPRMC,000201.000,A,6320.1303,N,17321.9416,W,10.16,277.82,110822,,,A*43
$GPVTG,277.82,T,,M,10.16,N,18.8,K,A*02
$GPZDA,000202.000,11,08,2022,,*5C
$GPGGA,000202.000,6320.1306,N,17321.9478,W,1,10,0.9,11.2,M,5.9,M,,0000*4F
$GPGLL,6320.1306,N,17321.9478,W,000202.000,A,A*4C
$GPRMC,000202.000,A,6320.1306,N,17321.9478,W,10.08,273.16,110822,,,A*4B
$GPVTG,273.16,T,,M,10.08,N,18.7,K,A*0B
$GPZDA,000203.000,11,08,2022,,*5D
$GPGGA,000203.000,6320.1307,N,17321.9541,W,1,10,0.9,10.7,M,5.9,M,,0000*40
$GPGLL,6320.1307,N,17321.9541,W,000203.000,A,A*47
$GPRMC,000203.000,A,6320.1307,N,17321.9541,W,10.15,272.31,110822,,,A*48
$GPVTG,272.31,T,,M,10.15,N,18.8,K,A*0C
$GPZDA,000204.000,11,08,2022,,*5A
$GPGGA,000204.000,6320.1308,N,17321.9603,W,1,10,0.9,10.6,M,5.9,M,,0000*4C
$GPGLL,6320.1308,N,17321.9603,W,000204.000,A,A*4A
$GPRMC,000204.000,A,6320.1308,N,17321.9603,W,9.85,269.37,110822,,,A*78
$GPVTG,269.37,T,,M,9.85,N,18.2,K,A*3B
$GPZDA,000205.000,11,08,2022,,*5B
$GPGGA,000205.000,6320.1308,N,17321.9665,W,1,10,0.9,10.8,M,5.9,M,,0000*43
$GPGLL,6320.1308,N,17321.9665,W,000205.000,A,A*4B
$GPRMC,000205.000,A,6320.1308,N,17321.9665,W,10.08,270.30,110822,,,A*4B
$GPVTG,270.30,T,,M,10.08,N,18.7,K,A*0C
:::msg fm client 99: MarportCommander on NOAA-PC - v0.9.55.0 - 20220811-000206Z
$GPZDA,000206.000,11,08,2022,,*58
$GPGGA,000206.000,6320.1309,N,17321.9727,W,1,10,0.9,11.1,M,5.9,M,,0000*4E
$GPGLL,6320.1309,N,17321.9727,W,000206.000,A,A*4E
$GPRMC,000206.000,A,6320.1309,N,17321.9727,W,10.25,273.50,110822,,,A*44
$GPVTG,273.50,T,,M,10.25,N,19.0,K,A*00
$GPZDA,000207.000,11,08,2022,,*59
$GPGGA,000207.000,6320.1311,N,17321.9791,W,1,10,0.9,11.3,M,5.9,M,,0000*49
$GPGLL,6320.1311,N,17321.9791,W,000207.000,A,A*4B
$GPRMC,000207.000,A,6320.1311,N,17321.9791,W,10.22,273.44,110822,,,A*43
$GPVTG,273.44,T,,M,10.22,N,18.9,K,A*0A
$GPZDA,000208.000,11,08,2022,,*56
$GPGGA,000208.000,6320.1313,N,17321.9854,W,1,10,0.9,11.4,M,5.9,M,,0000*45
$GPGLL,6320.1313,N,17321.9854,W,000208.000,A,A*40
$GPRMC,000208.000,A,6320.1313,N,17321.9854,W,10.23,272.63,110822,,,A*4D
$GPVTG,272.63,T,,M,10.23,N,18.9,K,A*0F
$GPZDA,000209.000,11,08,2022,,*57
$GPGGA,000209.000,6320.1314,N,17321.9917,W,1,10,0.9,11.4,M,5.9,M,,0000*45
$GPGLL,6320.1314,N,17321.9917,W,000209.000,A,A*40
$GPRMC,000209.000,A,6320.1314,N,17321.9917,W,10.08,272.19,110822,,,A*49
$GPVTG,272.19,T,,M,10.08,N,18.7,K,A*05
:::msg fm client 98: C:\Program Files\Marport CommandView3\CommandView.exe on NOAA-PC -  - 16:02:10
$GPZDA,000210.000,11,08,2022,,*5F
$GPGGA,000210.000,6320.1315,N,17321.9981,W,1,10,0.9,11.3,M,5.9,M,,0000*44
$GPGLL,6320.1315,N,17321.9981,W,000210.000,A,A*46
$GPRMC,000210.000,A,6320.1315,N,17321.9981,W,10.28,271.88,110822,,,A*46
$GPVTG,271.88,T,,M,10.28,N,19.0,K,A*0A
$GPZDA,000211.000,11,08,2022,,*5E
$GPGGA,000211.000,6320.1316,N,17322.0045,W,1,10,0.9,11.3,M,5.9,M,,0000*4D
$GPGLL,6320.1316,N,17322.0045,W,000211.000,A,A*4F
$GPRMC,000211.000,A,6320.1316,N,17322.0045,W,10.34,270.78,110822,,,A*4C
$GPVTG,270.78,T,,M,10.34,N,19.2,K,A*0B
$GPZDA,000212.000,11,08,2022,,*5D
$GPGGA,000212.000,6320.1317,N,17322.0108,W,1,10,0.9,11.5,M,5.9,M,,0000*41
$GPGLL,6320.1317,N,17322.0108,W,000212.000,A,A*45
$GPRMC,000212.000,A,6320.1317,N,17322.0108,W,10.11,272.39,110822,,,A*46
$GPVTG,272.39,T,,M,10.11,N,18.7,K,A*0F
$GPZDA,000213.000,11,08,2022,,*5C
$GPGGA,000213.000,6320.1319,N,17322.0171,W,1,10,0.9,11.7,M,5.9,M,,0000*42
$GPGLL,6320.1319,N,17322.0171,W,000213.000,A,A*44
$GPRMC,000213.000,A,6320.1319,N,17322.0171,W,10.37,274.86,110822,,,A*41
$GPVTG,274.86,T,,M,10.37,N,19.2,K,A*0D
$GPZDA,000214.000,11,08,2022,,*5B
$GPGGA,000214.000,6320.1320,N,17322.0236,W,1,10,0.9,11.6,M,5.9,M,,0000*4E
$GPGLL,6320.1320,N,17322.0236,W,000214.000,A,A*49
$GPRMC,000214.000,A,6320.1320,N,17322.0236,W,10.70,273.07,110822,,,A*41
$GPVTG,273.07,T,,M,10.70,N,19.8,K,A*0A
$GPZDA,000215.000,11,08,2022,,*5A
$GPGGA,000215.000,6320.1321,N,17322.0301,W,1,10,0.9,11.3,M,5.9,M,,0000*4E
$GPGLL,6320.1321,N,17322.0301,W,000215.000,A,A*4C
$GPRMC,000215.000,A,6320.1321,N,17322.0301,W,10.39,270.56,110822,,,A*4E
$GPVTG,270.56,T,,M,10.39,N,19.2,K,A*0A
:::msg fm client 99: MarportCommander on NOAA-PC - v0.9.55.0 - 20220811-000216Z
$GPZDA,000216.000,11,08,2022,,*59
$GPGGA,000216.000,6320.1322,N,17322.0364,W,1,10,0.9,11.5,M,5.9,M,,0000*4B
$GPGLL,6320.1322,N,17322.0364,W,000216.000,A,A*4F
$GPRMC,000216.000,A,6320.1322,N,17322.0364,W,9.76,269.50,110822,,,A*70
$GPVTG,269.50,T,,M,9.76,N,18.1,K,A*35
$GPZDA,000217.000,11,08,2022,,*58
$GPGGA,000217.000,6320.1322,N,17322.0425,W,1,10,0.9,11.8,M,5.9,M,,0000*45
$GPGLL,6320.1322,N,17322.0425,W,000217.000,A,A*4C
$GPRMC,000217.000,A,6320.1322,N,17322.0425,W,10.11,274.06,110822,,,A*45
$GPVTG,274.06,T,,M,10.11,N,18.7,K,A*05
$GPZDA,000218.000,11,08,2022,,*57
$GPGGA,000218.000,6320.1324,N,17322.0489,W,1,10,0.9,11.5,M,5.9,M,,0000*47
$GPGLL,6320.1324,N,17322.0489,W,000218.000,A,A*43
$GPRMC,000218.000,A,6320.1324,N,17322.0489,W,10.61,273.24,110822,,,A*4A
$GPVTG,273.24,T,,M,10.61,N,19.7,K,A*04
$GPZDA,000219.000,11,08,2022,,*56
$GPGGA,000219.000,6320.1325,N,17322.0554,W,1,10,0.9,11.2,M,5.9,M,,0000*41
$GPGLL,6320.1325,N,17322.0554,W,000219.000,A,A*42
$GPRMC,000219.000,A,6320.1325,N,17322.0554,W,10.25,271.70,110822,,,A*48
$GPVTG,271.70,T,,M,10.25,N,19.0,K,A*00
:::msg fm client 98: C:\Program Files\Marport CommandView3\CommandView.exe on NOAA-PC -  - 16:02:20
$GPZDA,000220.000,11,08,2022,,*5C
$GPGGA,000220.000,6320.1325,N,17322.0616,W,1,10,0.9,11.2,M,5.9,M,,0000*4E
$GPGLL,6320.1325,N,17322.0616,W,000220.000,A,A*4D
$GPRMC,000220.000,A,6320.1325,N,17322.0616,W,9.71,269.49,110822,,,A*7D
$GPVTG,269.49,T,,M,9.71,N,18.0,K,A*3B
$GPZDA,000221.000,11,08,2022,,*5D
$GPGGA,000221.000,6320.1326,N,17322.0679,W,1,10,0.9,11.4,M,5.9,M,,0000*43
$GPGLL,6320.1326,N,17322.0679,W,000221.000,A,A*46
$GPRMC,000221.000,A,6320.1326,N,17322.0679,W,10.59,271.91,110822,,,A*48
$GPVTG,271.91,T,,M,10.59,N,19.6,K,A*02
$GPZDA,000222.000,11,08,2022,,*5E
$GPGGA,000222.000,6320.1326,N,17322.0744,W,1,10,0.9,11.5,M,5.9,M,,0000*4E
$GPGLL,6320.1326,N,17322.0744,W,000222.000,A,A*4A
$GPRMC,000222.000,A,6320.1326,N,17322.0744,W,10.26,268.48,110822,,,A*40
$GPVTG,268.48,T,,M,10.26,N,19.0,K,A*00
$GPZDA,000223.000,11,08,2022,,*5F
$GPGGA,000223.000,6320.1326,N,17322.0807,W,1,10,0.9,11.6,M,5.9,M,,0000*44
$GPGLL,6320.1326,N,17322.0807,W,000223.000,A,A*43
$GPRMC,000223.000,A,6320.1326,N,17322.0807,W,10.07,271.95,110822,,,A*42
$GPVTG,271.95,T,,M,10.07,N,18.7,K,A*0D
$GPZDA,000224.000,11,08,2022,,*58
$GPGGA,000224.000,6320.1327,N,17322.0870,W,1,10,0.9,12.0,M,5.9,M,,0000*47
$GPGLL,6320.1327,N,17322.0870,W,000224.000,A,A*45
$GPRMC,000224.000,A,6320.1327,N,17322.0870,W,10.01,274.24,110822,,,A*4D
$GPVTG,274.24,T,,M,10.01,N,18.5,K,A*06
$GPZDA,000225.000,11,08,2022,,*59
$GPGGA,000225.000,6320.1330,N,17322.0933,W,1,10,0.9,12.2,M,5.9,M,,0000*44
$GPGLL,6320.1330,N,17322.0933,W,000225.000,A,A*44
$GPRMC,000225.000,A,6320.1330,N,17322.0933,W,10.45,275.35,110822,,,A*4D
$GPVTG,275.35,T,,M,10.45,N,19.3,K,A*00
:::msg fm client 99: MarportCommander on NOAA-PC - v0.9.55.0 - 20220811-000226Z
$GPZDA,000226.000,11,08,2022,,*5A
$GPGGA,000226.000,6320.1332,N,17322.0998,W,1,10,0.9,12.0,M,5.9,M,,0000*46
$GPGLL,6320.1332,N,17322.0998,W,000226.000,A,A*44
$GPRMC,000226.000,A,6320.1332,N,17322.0998,W,10.32,272.14,110822,,,A*49
$GPVTG,272.14,T,,M,10.32,N,19.1,K,A*06
$GPZDA,000227.000,11,08,2022,,*5B
$GPGGA,000227.000,6320.1332,N,17322.1061,W,1,10,0.9,11.8,M,5.9,M,,0000*42
$GPGLL,6320.1332,N,17322.1061,W,000227.000,A,A*4B
$GPRMC,000227.000,A,6320.1332,N,17322.1061,W,10.20,269.82,110822,,,A*40
$GPVTG,269.82,T,,M,10.20,N,18.9,K,A*09
$GPZDA,000228.000,11,08,2022,,*54
$GPGGA,000228.000,6320.1332,N,17322.1125,W,1,10,0.9,11.7,M,5.9,M,,0000*43
$GPGLL,6320.1332,N,17322.1125,W,000228.000,A,A*45
$GPRMC,000228.000,A,6320.1332,N,17322.1125,W,10.22,268.64,110822,,,A*45
$GPVTG,268.64,T,,M,10.22,N,18.9,K,A*02
$GPZDA,000229.000,11,08,2022,,*55
$GPGGA,000229.000,6320.1332,N,17322.1189,W,1,10,0.9,11.8,M,5.9,M,,0000*4B
$GPGLL,6320.1332,N,17322.1189,W,000229.000,A,A*42
$GPRMC,000229.000,A,6320.1332,N,17322.1189,W,10.48,272.51,110822,,,A*43
$GPVTG,272.51,T,,M,10.48,N,19.4,K,A*0F
:::msg fm client 98: C:\Program Files\Marport CommandView3\CommandView.exe on NOAA-PC -  - 16:02:30
$GPZDA,000230.000,11,08,2022,,*5D
$GPGGA,000230.000,6320.1334,N,17322.1253,W,1,10,0.9,12.2,M,5.9,M,,0000*48
$GPGLL,6320.1334,N,17322.1253,W,000230.000,A,A*48
$GPRMC,000230.000,A,6320.1334,N,17322.1253,W,10.21,275.36,110822,,,A*40
$GPVTG,275.36,T,,M,10.21,N,18.9,K,A*0A
$GPZDA,000231.000,11,08,2022,,*5C
$GPGGA,000231.000,6320.1336,N,17322.1317,W,1,10,0.9,12.3,M,5.9,M,,0000*4B
$GPGLL,6320.1336,N,17322.1317,W,000231.000,A,A*4A
$GPRMC,000231.000,A,6320.1336,N,17322.1317,W,10.29,274.02,110822,,,A*4C
$GPVTG,274.02,T,,M,10.29,N,19.1,K,A*0D
$GPZDA,000232.000,11,08,2022,,*5F
$GPGGA,000232.000,6320.1337,N,17322.1380,W,1,10,0.9,12.3,M,5.9,M,,0000*47
$GPGLL,6320.1337,N,17322.1380,W,000232.000,A,A*46
$GPRMC,000232.000,A,6320.1337,N,17322.1380,W,10.26,270.49,110822,,,A*44
$GPVTG,270.49,T,,M,10.26,N,19.0,K,A*08
$GPZDA,000233.000,11,08,2022,,*5E
$GPGGA,000233.000,6320.1338,N,17322.1444,W,1,10,0.9,12.1,M,5.9,M,,0000*44
$GPGLL,6320.1338,N,17322.1444,W,000233.000,A,A*47
$GPRMC,000233.000,A,6320.1338,N,17322.1444,W,10.35,271.61,110822,,,A*4C
$GPVTG,271.61,T,,M,10.35,N,19.2,K,A*03
$GPZDA,000234.000,11,08,2022,,*59
$GPGGA,000234.000,6320.1338,N,17322.1508,W,1,10,0.9,12.1,M,5.9,M,,0000*4A
$GPGLL,6320.1338,N,17322.1508,W,000234.000,A,A*49
$GPRMC,000234.000,A,6320.1338,N,17322.1508,W,10.32,269.41,110822,,,A*4E
$GPVTG,269.41,T,,M,10.32,N,19.1,K,A*0C
$GPZDA,000235.000,11,08,2022,,*58
$GPGGA,000235.000,6320.1338,N,17322.1571,W,1,10,0.9,12.3,M,5.9,M,,0000*47
$GPGLL,6320.1338,N,17322.1571,W,000235.000,A,A*46
$GPRMC,000235.000,A,6320.1338,N,17322.1571,W,9.94,268.60,110822,,,A*77
$GPVTG,268.60,T,,M,9.94,N,18.4,K,A*3E
:::msg fm client 99: MarportCommander on NOAA-PC - v0.9.55.0 - 20220811-000236Z
$GPZDA,000236.000,11,08,2022,,*5B
$GPGGA,000236.000,6320.1339,N,17322.1633,W,1,10,0.9,12.6,M,5.9,M,,0000*45
$GPGLL,6320.1339,N,17322.1633,W,000236.000,A,A*41
$GPRMC,000236.000,A,6320.1339,N,17322.1633,W,10.33,274.20,110822,,,A*4C
$GPVTG,274.20,T,,M,10.33,N,19.1,K,A*06
$GPZDA,000237.000,11,08,2022,,*5A
$GPGGA,000237.000,6320.1341,N,17322.1699,W,1,10,0.9,12.3,M,5.9,M,,0000*4E
$GPGLL,6320.1341,N,17322.1699,W,000237.000,A,A*4F
$GPRMC,000237.000,A,6320.1341,N,17322.1699,W,10.98,275.16,110822,,,A*47
$GPVTG,275.16,T,,M,10.98,N,20.3,K,A*0B
$GPZDA,000238.000,11,08,2022,,*55
$GPGGA,000238.000,6320.1343,N,17322.1765,W,1,10,0.9,12.0,M,5.9,M,,0000*42
$GPGLL,6320.1343,N,17322.1765,W,000238.000,A,A*40
$GPRMC,000238.000,A,6320.1343,N,17322.1765,W,10.27,273.24,110822,,,A*4B
$GPVTG,273.24,T,,M,10.27,N,19.0,K,A*01
$GPZDA,000239.000,11,08,2022,,*54
$GPGGA,000239.000,6320.1344,N,17322.1826,W,1,10,0.9,12.2,M,5.9,M,,0000*4E
$GPGLL,6320.1344,N,17322.1826,W,000239.000,A,A*4E
$GPRMC,000239.000,A,6320.1344,N,17322.1826,W,9.63,269.86,110822,,,A*7E
$GPVTG,269.86,T,,M,9.63,N,17.8,K,A*3C
:::msg fm client 98: C:\Program Files\Marport CommandView3\CommandView.exe on NOAA-PC -  - 16:02:40
$GPZDA,000240.000,11,08,2022,,*5A
$GPGGA,000240.000,6320.1344,N,17322.1889,W,1,10,0.9,12.2,M,5.9,M,,0000*45
$GPGLL,6320.1344,N,17322.1889,W,000240.000,A,A*45
$GPRMC,000240.000,A,6320.1344,N,17322.1889,W,10.40,270.53,110822,,,A*4C
$GPVTG,270.53,T,,M,10.40,N,19.3,K,A*00
$GPZDA,000241.000,11,08,2022,,*5B
$GPGGA,000241.000,6320.1344,N,17322.1955,W,1,10,0.9,11.6,M,5.9,M,,0000*43
$GPGLL,6320.1344,N,17322.1955,W,000241.000,A,A*44
$GPRMC,000241.000,A,6320.1344,N,17322.1955,W,11.02,270.65,110822,,,A*4F
$GPVTG,270.65,T,,M,11.02,N,20.4,K,A*0F
$GPZDA,000242.000,11,08,2022,,*58
$GPGGA,000242.000,6320.1345,N,17322.2020,W,1,10,0.9,11.7,M,5.9,M,,0000*48
$GPGLL,6320.1345,N,17322.2020,W,000242.000,A,A*4E
$GPRMC,000242.000,A,6320.1345,N,17322.2020,W,9.67,271.84,110822,,,A*71
$GPVTG,271.84,T,,M,9.67,N,17.9,K,A*32
$GPZDA,000243.000,11,08,2022,,*59
$GPGGA,000243.000,6320.1347,N,17322.2078,W,1,10,0.9,12.3,M,5.9,M,,0000*41
$GPGLL,6320.1347,N,17322.2078,W,000243.000,A,A*40
$GPRMC,000243.000,A,6320.1347,N,17322.2078,W,9.19,274.08,110822,,,A*77
$GPVTG,274.08,T,,M,9.19,N,17.0,K,A*33
$GPZDA,000244.000,11,08,2022,,*5E
$GPGGA,000244.000,6320.1349,N,17322.2140,W,1,10,0.9,12.1,M,5.9,M,,0000*40
$GPGLL,6320.1349,N,17322.2140,W,000244.000,A,A*43
$GPRMC,000244.000,A,6320.1349,N,17322.2140,W,10.81,274.14,110822,,,A*40
$GPVTG,274.14,T,,M,10.81,N,20.0,K,A*03
$GPZDA,000245.000,11,08,2022,,*5F
$GPGGA,000245.000,6320.1350,N,17322.2208,W,1,10,0.9,11.0,M,5.9,M,,0000*44
$GPGLL,6320.1350,N,17322.2208,W,000245.000,A,A*45
$GPRMC,000245.000,A,6320.1350,N,17322.2208,W,10.74,272.65,110822,,,A*4C
$GPVTG,272.65,T,,M,10.74,N,19.9,K,A*0A
:::msg fm client 99: MarportCommander on NOAA-PC - v0.9.55.0 - 20220811-000246Z
$GPZDA,000246.000,11,08,2022,,*5C
$GPGGA,000246.000,6320.1351,N,17322.2270,W,1,10,0.9,11.1,M,5.9,M,,0000*48
$GPGLL,6320.1351,N,17322.2270,W,000246.000,A,A*48
$GPRMC,000246.000,A,6320.1351,N,17322.2270,W,9.36,270.20,110822,,,A*7C
$GPVTG,270.20,T,,M,9.36,N,17.3,K,A*33
$GPZDA,000247.000,11,08,2022,,*5D
$GPGGA,000247.000,6320.1352,N,17322.2326,W,1,10,0.9,12.0,M,5.9,M,,0000*4A
$GPGLL,6320.1352,N,17322.2326,W,000247.000,A,A*48
$GPRMC,000247.000,A,6320.1352,N,17322.2326,W,8.89,271.63,110822,,,A*7F
$GPVTG,271.63,T,,M,8.89,N,16.5,K,A*37
$GPZDA,000248.000,11,08,2022,,*52
$GPGGA,000248.000,6320.1353,N,17322.2386,W,1,10,0.9,12.1,M,5.9,M,,0000*4F
$GPGLL,6320.1353,N,17322.2386,W,000248.000,A,A*4C
$GPRMC,000248.000,A,6320.1353,N,17322.2386,W,10.45,274.65,110822,,,A*41
$GPVTG,274.65,T,,M,10.45,N,19.3,K,A*04
$GPZDA,000249.000,11,08,2022,,*53
$GPGGA,000249.000,6320.1356,N,17322.2452,W,1,10,0.9,11.7,M,5.9,M,,0000*40
$GPGLL,6320.1356,N,17322.2452,W,000249.000,A,A*46
$GPRMC,000249.000,A,6320.1356,N,17322.2452,W,10.81,275.81,110822,,,A*48
$GPVTG,275.81,T,,M,10.81,N,20.0,K,A*0E
:::msg fm client 98: C:\Program Files\Marport CommandView3\CommandView.exe on NOAA-PC -  - 16:02:50
$GPZDA,000250.000,11,08,2022,,*5B
$GPGGA,000250.000,6320.1358,N,17322.2515,W,1,10,0.9,11.0,M,5.9,M,,0000*43
$GPGLL,6320.1358,N,17322.2515,W,000250.000,A,A*42
$GPRMC,000250.000,A,6320.1358,N,17322.2515,W,9.59,271.20,110822,,,A*7E
$GPVTG,271.20,T,,M,9.59,N,17.8,K,A*30
$GPZDA,000251.000,11,08,2022,,*5A
$GPGGA,000251.000,6320.1358,N,17322.2572,W,1,10,0.9,11.0,M,5.9,M,,0000*43
$GPGLL,6320.1358,N,17322.2572,W,000251.000,A,A*42
$GPRMC,000251.000,A,6320.1358,N,17322.2572,W,9.03,268.89,110822,,,A*7A
$GPVTG,268.89,T,,M,9.03,N,16.7,K,A*3A
$GPZDA,000252.000,11,08,2022,,*59
$GPGGA,000252.000,6320.1359,N,17322.2630,W,1,10,0.9,11.6,M,5.9,M,,0000*42
$GPGLL,6320.1359,N,17322.2630,W,000252.000,A,A*45
$GPRMC,000252.000,A,6320.1359,N,17322.2630,W,9.77,273.05,110822,,,A*70
$GPVTG,273.05,T,,M,9.77,N,18.1,K,A*3F
$GPZDA,000253.000,11,08,2022,,*58
$GPGGA,000253.000,6320.1358,N,17322.2692,W,1,10,0.9,11.7,M,5.9,M,,0000*4B
$GPGLL,6320.1358,N,17322.2692,W,000253.000,A,A*4D
$GPRMC,000253.000,A,6320.1358,N,17322.2692,W,10.30,266.03,110822,,,A*41
$GPVTG,266.03,T,,M,10.30,N,19.1,K,A*07
$GPZDA,000254.000,11,08,2022,,*5F
$GPGGA,000254.000,6320.1358,N,17322.2755,W,1,10,0.9,11.4,M,5.9,M,,0000*45
$GPGLL,6320.1358,N,17322.2755,W,000254.000,A,A*40
$GPRMC,000254.000,A,6320.1358,N,17322.2755,W,9.72,273.10,110822,,,A*74
$GPVTG,273.10,T,,M,9.72,N,18.0,K,A*3F
$GPZDA,000255.000,11,08,2022,,*5E
$GPGGA,000255.000,6320.1360,N,17322.2815,W,1,10,0.9,11.4,M,5.9,M,,0000*44
$GPGLL,6320.1360,N,17322.2815,W,000255.000,A,A*41
$GPRMC,000255.000,A,6320.1360,N,17322.2815,W,9.72,272.29,110822,,,A*7E
$GPVTG,272.29,T,,M,9.72,N,18.0,K,A*34
:::msg fm client 99: MarportCommander on NOAA-PC - v0.9.55.0 - 20220811-000256Z
$GPZDA,000256.000,11,08,2022,,*5D
$GPGGA,000256.000,6320.1360,N,17322.2877,W,1,10,0.9,11.1,M,5.9,M,,0000*46
$GPGLL,6320.1360,N,17322.2877,W,000256.000,A,A*46
$GPRMC,000256.000,A,6320.1360,N,17322.2877,W,10.28,269.52,110822,,,A*48
$GPVTG,269.52,T,,M,10.28,N,19.0,K,A*04
$GPZDA,000257.000,11,08,2022,,*5C
$GPGGA,000257.000,6320.1360,N,17322.2937,W,1,10,0.9,11.0,M,5.9,M,,0000*43
$GPGLL,6320.1360,N,17322.2937,W,000257.000,A,A*42
$GPRMC,000257.000,A,6320.1360,N,17322.2937,W,9.14,265.91,110822,,,A*78
$GPVTG,265.91,T,,M,9.14,N,16.9,K,A*36
$GPZDA,000258.000,11,08,2022,,*53
$GPGGA,000258.000,6320.1360,N,17322.2994,W,1,10,0.9,11.4,M,5.9,M,,0000*41
$GPGLL,6320.1360,N,17322.2994,W,000258.000,A,A*44
$GPRMC,000258.000,A,6320.1360,N,17322.2994,W,9.22,272.96,110822,,,A*7A
$GPVTG,272.96,T,,M,9.22,N,17.1,K,A*3B
$GPZDA,000259.000,11,08,2022,,*52
$GPGGA,000259.000,6320.1361,N,17322.3054,W,1,10,0.9,11.5,M,5.9,M,,0000*44
$GPGLL,6320.1361,N,17322.3054,W,000259.000,A,A*40
$GPRMC,000259.000,A,6320.1361,N,17322.3054,W,10.04,274.08,110822,,,A*43
$GPVTG,274.08,T,,M,10.04,N,18.6,K,A*0E
:::msg fm client 98: C:\Program Files\Marport CommandView3\CommandView.exe on NOAA-PC -  - 16:03:00
$GPZDA,000300.000,11,08,2022,,*5F
$GPGGA,000300.000,6320.1363,N,17322.3117,W,1,10,0.9,11.2,M,5.9,M,,0000*4A
$GPGLL,6320.1363,N,17322.3117,W,000300.000,A,A*49
$GPRMC,000300.000,A,6320.1363,N,17322.3117,W,10.41,274.55,110822,,,A*43
$GPVTG,274.55,T,,M,10.41,N,19.3,K,A*03
$GPZDA,000301.000,11,08,2022,,*5E
$GPGGA,000301.000,6320.1364,N,17322.3180,W,1,10,0.9,10.3,M,5.9,M,,0000*42
$GPGLL,6320.1364,N,17322.3180,W,000301.000,A,A*41
$GPRMC,000301.000,A,6320.1364,N,17322.3180,W,10.04,271.06,110822,,,A*49
$GPVTG,271.06,T,,M,10.04,N,18.6,K,A*05
$GPZDA,000302.000,11,08,2022,,*5D
$GPGGA,000302.000,6320.1364,N,17322.3240,W,1,10,0.9,10.0,M,5.9,M,,0000*4D
$GPGLL,6320.1364,N,17322.3240,W,000302.000,A,A*4D
$GPRMC,000302.000,A,6320.1364,N,17322.3240,W,9.37,267.34,110822,,,A*7B
$GPVTG,267.34,T,,M,9.37,N,17.3,K,A*31
$GPZDA,000303.000,11,08,2022,,*5C
$GPGGA,000303.000,6320.1364,N,17322.3298,W,1,10,0.9,10.3,M,5.9,M,,0000*4A
$GPGLL,6320.1364,N,17322.3298,W,000303.000,A,A*49
$GPRMC,000303.000,A,6320.1364,N,17322.3298,W,9.40,269.82,110822,,,A*7C
$GPVTG,269.82,T,,M,9.40,N,17.4,K,A*35
$GPZDA,000304.000,11,08,2022,,*5B
$GPGGA,000304.000,6320.1365,N,17322.3360,W,1,10,0.9,10.6,M,5.9,M,,0000*4F
$GPGLL,6320.1365,N,17322.3360,W,000304.000,A,A*49
$GPRMC,000304.000,A,6320.1365,N,17322.3360,W,10.37,275.10,110822,,,A*42
$GPVTG,275.10,T,,M,10.37,N,19.2,K,A*03
$GPZDA,000305.000,11,08,2022,,*5A
$GPGGA,000305.000,6320.1369,N,17322.3423,W,1,10,0.9,10.3,M,5.9,M,,0000*47
$GPGLL,6320.1369,N,17322.3423,W,000305.000,A,A*44
$GPRMC,000305.000,A,6320.1369,N,17322.3423,W,10.32,277.94,110822,,,A*44
$GPVTG,277.94,T,,M,10.32,N,19.1,K,A*0B
:::msg fm client 99: MarportCommander on NOAA-PC - v0.9.55.0 - 20220811-000306Z
$GPZDA,000306.000,11,08,2022,,*59
$GPGGA,000306.000,6320.1371,N,17322.3487,W,1,10,0.9,9.4,M,5.9,M,,0000*7C
$GPGLL,6320.1371,N,17322.3487,W,000306.000,A,A*40
$GPRMC,000306.000,A,6320.1371,N,17322.3487,W,10.09,272.23,110822,,,A*41
$GPVTG,272.23,T,,M,10.09,N,18.7,K,A*0D
$GPZDA,000307.000,11,08,2022,,*58
$GPGGA,000307.000,6320.1371,N,17322.3548,W,1,10,0.9,9.2,M,5.9,M,,0000*79
$GPGLL,6320.1371,N,17322.3548,W,000307.000,A,A*43
$GPRMC,000307.000,A,6320.1371,N,17322.3548,W,9.83,268.04,110822,,,A*76
$GPVTG,268.04,T,,M,9.83,N,18.2,K,A*3C
$GPZDA,000308.000,11,08,2022,,*57
$GPGGA,000308.000,6320.1371,N,17322.3610,W,1,10,0.9,9.3,M,5.9,M,,0000*79
$GPGLL,6320.1371,N,17322.3610,W,000308.000,A,A*42
$GPRMC,000308.000,A,6320.1371,N,17322.3610,W,10.05,272.08,110822,,,A*46
$GPVTG,272.08,T,,M,10.05,N,18.6,K,A*09
$GPZDA,000309.000,11,08,2022,,*56
$GPGGA,000309.000,6320.1373,N,17322.3671,W,1,10,0.9,9.8,M,5.9,M,,0000*76
$GPGLL,6320.1373,N,17322.3671,W,000309.000,A,A*46
$GPRMC,000309.000,A,6320.1373,N,17322.3671,W,9.91,272.60,110822,,,A*79
$GPVTG,272.60,T,,M,9.91,N,18.3,K,A*37
:::msg fm client 98: C:\Program Files\Marport CommandView3\CommandView.exe on NOAA-PC -  - 16:03:10
$GPZDA,000310.000,11,08,2022,,*5E
$GPGGA,000310.000,6320.1374,N,17322.3734,W,1,10,0.9,9.7,M,5.9,M,,0000*76
$GPGLL,6320.1374,N,17322.3734,W,000310.000,A,A*49
$GPRMC,000310.000,A,6320.1374,N,17322.3734,W,10.43,275.07,110822,,,A*47
$GPVTG,275.07,T,,M,10.43,N,19.3,K,A*07
$GPZDA,000311.000,11,08,2022,,*5F
$GPGGA,000311.000,6320.1377,N,17322.3798,W,1,10,0.9,9.3,M,5.9,M,,0000*76
$GPGLL,6320.1377,N,17322.3798,W,000311.000,A,A*4D
$GPRMC,000311.000,A,6320.1377,N,17322.3798,W,10.14,276.41,110822,,,A*40
$GPVTG,276.41,T,,M,10.14,N,18.8,K,A*0E
$GPZDA,000312.000,11,08,2022,,*5C
$GPGGA,000312.000,6320.1379,N,17322.3859,W,1,10,0.9,9.0,M,5.9,M,,0000*7A
$GPGLL,6320.1379,N,17322.3859,W,000312.000,A,A*42
$GPRMC,000312.000,A,6320.1379,N,17322.3859,W,9.85,272.78,110822,,,A*71
$GPVTG,272.78,T,,M,9.85,N,18.3,K,A*3B
$GPZDA,000313.000,11,08,2022,,*5D
$GPGGA,000313.000,6320.1379,N,17322.3920,W,1,10,0.9,9.0,M,5.9,M,,0000*74
$GPGLL,6320.1379,N,17322.3920,W,000313.000,A,A*4C
$GPRMC,000313.000,A,6320.1379,N,17322.3920,W,9.79,268.31,110822,,,A*7A
$GPVTG,268.31,T,,M,9.79,N,18.1,K,A*3C
$GPZDA,000314.000,11,08,2022,,*5A
$GPGGA,000314.000,6320.1379,N,17322.3980,W,1,10,0.9,9.3,M,5.9,M,,0000*7A
$GPGLL,6320.1379,N,17322.3980,W,000314.000,A,A*41
$GPRMC,000314.000,A,6320.1379,N,17322.3980,W,9.78,267.78,110822,,,A*74
$GPVTG,267.78,T,,M,9.78,N,18.1,K,A*3F
$GPZDA,000315.000,11,08,2022,,*5B
$GPGGA,000315.000,6320.1379,N,17322.4042,W,1,10,0.9,9.6,M,5.9,M,,0000*7E
$GPGLL,6320.1379,N,17322.4042,W,000315.000,A,A*40
$GPRMC,000315.000,A,6320.1379,N,17322.4042,W,10.47,272.98,110822,,,A*4B
$GPVTG,272.98,T,,M,10.47,N,19.4,K,A*05
:::msg fm client 99: MarportCommander on NOAA-PC - v0.9.55.0 - 20220811-000316Z
$GPZDA,000316.000,11,08,2022,,*58
$GPGGA,000316.000,6320.1381,N,17322.4106,W,1,10,0.9,9.6,M,5.9,M,,0000*7B
$GPGLL,6320.1381,N,17322.4106,W,000316.000,A,A*45
$GPRMC,000316.000,A,6320.1381,N,17322.4106,W,10.27,275.66,110822,,,A*4E
$GPVTG,275.66,T,,M,10.27,N,19.0,K,A*01
$GPZDA,000317.000,11,08,2022,,*59
$GPGGA,000317.000,6320.1383,N,17322.4167,W,1,10,0.9,9.5,M,5.9,M,,0000*7C
$GPGLL,6320.1383,N,17322.4167,W,000317.000,A,A*41
$GPRMC,000317.000,A,6320.1383,N,17322.4167,W,9.62,275.34,110822,,,A*74
$GPVTG,275.34,T,,M,9.62,N,17.8,K,A*39
$GPZDA,000318.000,11,08,2022,,*56
$GPGGA,000318.000,6320.1385,N,17322.4228,W,1,10,0.9,9.3,M,5.9,M,,0000*7B
$GPGLL,6320.1385,N,17322.4228,W,000318.000,A,A*40
$GPRMC,000318.000,A,6320.1385,N,17322.4228,W,9.75,271.57,110822,,,A*72
$GPVTG,271.57,T,,M,9.75,N,18.1,K,A*38
$GPZDA,000319.000,11,08,2022,,*57
$GPGGA,000319.000,6320.1385,N,17322.4289,W,1,10,0.9,8.8,M,5.9,M,,0000*7B
$GPGLL,6320.1385,N,17322.4289,W,000319.000,A,A*4A
$GPRMC,000319.000,A,6320.1385,N,17322.4289,W,9.94,268.90,110822,,,A*74
$GPVTG,268.90,T,,M,9.94,N,18.4,K,A*31
:::msg fm client 98: C:\Program Files\Marport CommandView3\CommandView.exe on NOAA-PC -  - 16:03:20
$GPZDA,000320.000,11,08,2022,,*5D
$GPGGA,000320.000,6320.1385,N,17322.4348,W,1,10,0.9,9.0,M,5.9,M,,0000*74
$GPGLL,6320.1385,N,17322.4348,W,000320.000,A,A*4C
$GPRMC,000320.000,A,6320.1385,N,17322.4348,W,9.03,271.24,110822,,,A*7B
$GPVTG,271.24,T,,M,9.03,N,16.7,K,A*35
$GPZDA,000321.000,11,08,2022,,*5C
$GPGGA,000321.000,6320.1387,N,17322.4402,W,1,10,0.9,9.8,M,5.9,M,,0000*76
$GPGLL,6320.1387,N,17322.4402,W,000321.000,A,A*46
$GPRMC,000321.000,A,6320.1387,N,17322.4402,W,8.56,275.28,110822,,,A*78
$GPVTG,275.28,T,,M,8.56,N,15.8,K,A*30
$GPZDA,000322.000,11,08,2022,,*5F
$GPGGA,000322.000,6320.1389,N,17322.4457,W,1,10,0.9,9.8,M,5.9,M,,0000*7B
$GPGLL,6320.1389,N,17322.4457,W,000322.000,A,A*4B
$GPRMC,000322.000,A,6320.1389,N,17322.4457,W,9.49,276.57,110822,,,A*71
$GPVTG,276.57,T,,M,9.49,N,17.6,K,A*38
$GPZDA,000323.000,11,08,2022,,*5E
$GPGGA,000323.000,6320.1391,N,17322.4516,W,1,10,0.9,9.1,M,5.9,M,,0000*7E
$GPGLL,6320.1391,N,17322.4516,W,000323.000,A,A*47
$GPRMC,000323.000,A,6320.1391,N,17322.4516,W,9.30,274.58,110822,,,A*7E
$GPVTG,274.58,T,,M,9.30,N,17.2,K,A*3F
$GPZDA,000324.000,11,08,2022,,*59
$GPGGA,000324.000,6320.1393,N,17322.4570,W,1,10,0.9,8.8,M,5.9,M,,0000*73
$GPGLL,6320.1393,N,17322.4570,W,000324.000,A,A*42
$GPRMC,000324.000,A,6320.1393,N,17322.4570,W,8.40,271.24,110822,,,A*73
$GPVTG,271.24,T,,M,8.40,N,15.6,K,A*31
$GPZDA,000325.000,11,08,2022,,*58
$GPGGA,000325.000,6320.1393,N,17322.4621,W,1,10,0.9,9.0,M,5.9,M,,0000*7C
$GPGLL,6320.1393,N,17322.4621,W,000325.000,A,A*44
$GPRMC,000325.000,A,6320.1393,N,17322.4621,W,8.30,268.11,110822,,,A*7C
$GPVTG,268.11,T,,M,8.30,N,15.4,K,A*3A
:::msg fm client 99: MarportCommander on NOAA-PC - v0.9.55.0 - 20220811-000326Z
$GPZDA,000326.000,11,08,2022,,*5B
$GPGGA,000326.000,6320.1393,N,17322.4673,W,1,10,0.9,9.5,M,5.9,M,,0000*7D
$GPGLL,6320.1393,N,17322.4673,W,000326.000,A,A*40
$GPRMC,000326.000,A,6320.1393,N,17322.4673,W,8.65,270.75,110822,,,A*73
$GPVTG,270.75,T,,M,8.65,N,16.0,K,A*36
$GPZDA,000327.000,11,08,2022,,*5A
$GPGGA,000327.000,6320.1394,N,17322.4727,W,1,10,0.9,9.6,M,5.9,M,,0000*78
$GPGLL,6320.1394,N,17322.4727,W,000327.000,A,A*46
$GPRMC,000327.000,A,6320.1394,N,17322.4727,W,8.77,273.60,110822,,,A*71
$GPVTG,273.60,T,,M,8.77,N,16.2,K,A*30
$GPZDA,000328.000,11,08,2022,,*55
$GPGGA,000328.000,6320.1396,N,17322.4779,W,1,10,0.9,9.8,M,5.9,M,,0000*70
$GPGLL,6320.1396,N,17322.4779,W,000328.000,A,A*40
$GPRMC,000328.000,A,6320.1396,N,17322.4779,W,8.19,277.03,110822,,,A*7E
$GPVTG,277.03,T,,M,8.19,N,15.2,K,A*3A
$GPZDA,000329.000,11,08,2022,,*54
$GPGGA,000329.000,6320.1398,N,17322.4828,W,1,10,0.9,10.0,M,5.9,M,,0000*44
$GPGLL,6320.1398,N,17322.4828,W,000329.000,A,A*44
$GPRMC,000329.000,A,6320.1398,N,17322.4828,W,7.69,275.78,110822,,,A*7C
$GPVTG,275.78,T,,M,7.69,N,14.2,K,A*3D
