$GPRMC,160400.000,A,5737.6868,N,16401.4024,W,8.92,197.70,070621,,,A*70
$SDDBS,158.54,f,48.32,M,26.42,F
$GPGGA,160401.000,5737.6842,N,16401.4038,W,1,12,0.8,17.4,M,13.3,M,,0000*77
$GPGSA,M,3,24,17,19,28,15,57,12,14,13,10,23,44,1.7,0.8,1.5*34
$GPGSV,3,1,12,24,69,266,45,17,43,079,46,19,41,119,45,28,41,065,44*76
$GPGSV,3,2,12,15,38,196,41,57,37,254,42,12,24,228,44,14,23,063,41*75
$GPGSV,3,3,12,13,22,162,37,10,21,300,43,23,17,266,42,44,12,128,38*7F
$GPRMC,160401.000,A,5737.6842,N,16401.4038,W,10.37,192.92,070621,,,A*4B
$SDDBS,159.98,f,48.76,M,26.66,F
$GPGGA,160402.000,5737.6816,N,16401.4046,W,1,12,0.8,17.2,M,13.3,M,,0000*7A
$GPRMC,160402.000,A,5737.6816,N,16401.4046,W,8.97,182.81,070621,,,A*70
$SDDBS,161.22,f,49.14,M,26.87,F
$SDDBS,160.87,f,49.03,M,26.81,F
$GPGGA,160403.000,5737.6792,N,16401.4044,W,1,12,0.8,17.1,M,13.3,M,,0000*79
$GPGSA,M,3,24,17,19,28,15,57,12,14,13,10,23,44,1.7,0.8,1.5*34
$GPRMC,160403.000,A,5737.6792,N,16401.4044,W,8.46,176.04,070621,,,A*7A
$SDDBS,157.95,f,48.14,M,26.32,F
$GPGGA,160404.000,5737.6767,N,16401.4038,W,1,12,0.8,17.5,M,13.3,M,,0000*7B
$GPRMC,160404.000,A,5737.6767,N,16401.4038,W,9.45,171.33,070621,,,A*7D
$GPGGA,160405.000,5737.6741,N,16401.4029,W,1,12,0.8,17.7,M,13.3,M,,0000*7C
$SDDBS,156.74,f,47.77,M,26.12,F
$GPGSA,M,3,24,17,19,28,15,57,12,14,13,10,23,44,1.7,0.8,1.5*34
$GPRMC,160405.000,A,5737.6741,N,16401.4029,W,9.32,170.22,070621,,,A*79
$GPGGA,160406.000,5737.6716,N,16401.4022,W,1,12,0.8,18.2,M,13.3,M,,0000*7C
$GPGSV,3,1,12,24,69,266,46,17,43,079,46,19,41,119,44,28,41,065,44*74
$GPGSV,3,2,12,15,38,196,36,57,37,254,42,12,24,228,42,14,23,063,40*72
$GPGSV,3,3,12,13,22,162,40,10,21,300,43,23,17,266,42,44,12,128,34*73
$GPRMC,160406.000,A,5737.6716,N,16401.4022,W,8.79,172.28,070621,,,A*75
$SDDBS,158.09,f,48.19,M,26.35,F
$GPGGA,160407.000,5737.6692,N,16401.4018,W,1,12,0.8,18.2,M,13.3,M,,0000*79
$GPGSA,M,3,24,17,19,28,15,57,12,14,13,10,23,44,1.7,0.8,1.5*34
$GPRMC,160407.000,A,5737.6692,N,16401.4018,W,9.09,179.49,070621,,,A*7A
$SDDBS,160.58,f,48.94,M,26.76,F
$SDDBS,159.97,f,48.76,M,26.66,F
$GPGGA,160408.000,5737.6666,N,16401.4022,W,1,12,0.8,18.2,M,13.3,M,,0000*74
$GPRMC,160408.000,A,5737.6666,N,16401.4022,W,9.37,186.81,070621,,,A*7E
$GPGGA,160409.000,5737.6640,N,16401.4030,W,1,12,0.8,17.8,M,13.3,M,,0000*77
$SDDBS,157.87,f,48.12,M,26.31,F
$GPGSA,M,3,24,17,19,28,15,57,12,14,13,10,23,44,1.7,0.8,1.5*34
$GPRMC,160409.000,A,5737.6640,N,16401.4030,W,9.67,189.68,070621,,,A*75
$GPGGA,160410.000,5737.6616,N,16401.4039,W,1,12,0.8,17.6,M,13.3,M,,0000*7B
$SDDBS,156.74,f,47.77,M,26.12,F
$GPRMC,160410.000,A,5737.6616,N,16401.4039,W,8.85,186.99,070621,,,A*7B
$GPGGA,160411.000,5737.6591,N,16401.4041,W,1,12,0.8,17.7,M,13.3,M,,0000*78
$SDDBS,157.71,f,48.07,M,26.29,F
$GPGSA,M,3,24,17,19,28,15,57,12,14,13,10,23,44,1.7,0.8,1.5*34
$GPGSV,3,1,12,24,69,266,47,17,43,079,46,19,41,119,44,28,41,065,44*75
$GPGSV,3,2,12,15,38,196,39,57,37,254,42,12,24,228,45,14,23,063,35*78
$GPGSV,3,3,12,13,22,162,35,10,21,300,43,23,17,266,42,44,12,128,36*73
$GPRMC,160411.000,A,5737.6591,N,16401.4041,W,8.63,179.76,070621,,,A*70
$GPGGA,160412.000,5737.6566,N,16401.4035,W,1,12,0.8,18.0,M,13.3,M,,0000*78
$GPRMC,160412.000,A,5737.6566,N,16401.4035,W,9.41,170.04,070621,,,A*75
$SDDBS,158.90,f,48.43,M,26.48,F
$GPGGA,160413.000,5737.6540,N,16401.4023,W,1,12,0.8,18.2,M,13.3,M,,0000*78
$GPGSA,M,3,24,17,19,28,15,57,12,14,13,10,23,44,1.7,0.8,1.5*34
$GPRMC,160413.000,A,5737.6540,N,16401.4023,W,9.91,166.56,070621,,,A*7A
$SDDBS,159.32,f,48.56,M,26.55,F
$SDDBS,159.85,f,48.72,M,26.64,F
$GPGGA,160414.000,5737.6515,N,16401.4012,W,1,12,0.8,18.2,M,13.3,M,,0000*7D
$GPRMC,160414.000,A,5737.6515,N,16401.4012,W,9.01,170.95,070621,,,A*7E
$SDDBS,160.07,f,48.79,M,26.68,F
$GPGGA,160415.000,5737.6491,N,16401.4007,W,1,12,0.8,18.3,M,13.3,M,,0000*74
$GPGSA,M,3,24,17,19,28,15,57,12,14,13,10,23,44,1.7,0.8,1.5*34
$GPRMC,160415.000,A,5737.6491,N,16401.4007,W,8.53,176.83,070621,,,A*71
$GPGGA,160416.000,5737.6468,N,16401.4008,W,1,12,0.8,18.2,M,13.3,M,,0000*7F
$SDDBS,158.80,f,48.40,M,26.47,F
$GPGSV,3,1,12,24,69,266,45,17,43,079,46,19,41,119,43,28,41,065,45*71
$GPGSV,3,2,12,15,38,196,41,57,37,254,42,12,24,228,45,14,23,063,42*77
$GPGSV,3,3,12,13,22,162,35,10,21,300,43,23,17,266,42,44,12,128,30*75
$GPRMC,160416.000,A,5737.6468,N,16401.4008,W,9.17,184.00,070621,,,A*7C
$GPGGA,160417.000,5737.6442,N,16401.4015,W,1,12,0.8,17.7,M,13.3,M,,0000*70
$GPGSA,M,3,24,17,19,28,15,57,12,14,13,10,23,44,1.7,0.8,1.5*34
$GPRMC,160417.000,A,5737.6442,N,16401.4015,W,10.24,186.88,070621,,,A*43
$SDDBS,157.65,f,48.05,M,26.27,F
$GPGGA,160418.000,5737.6417,N,16401.4024,W,1,12,0.8,17.2,M,13.3,M,,0000*78
$GPRMC,160418.000,A,5737.6417,N,16401.4024,W,9.09,190.29,070621,,,A*75
$SDDBS,158.54,f,48.32,M,26.42,F
$GPGGA,160419.000,5737.6393,N,16401.4027,W,1,12,0.8,17.2,M,13.3,M,,0000*71
$GPGSA,M,3,24,17,19,28,15,57,12,14,13,10,23,44,1.7,0.8,1.5*34
$GPRMC,160419.000,A,5737.6393,N,16401.4027,W,9.29,175.00,070621,,,A*7E
$GPGGA,160420.000,5737.6369,N,16401.4018,W,1,12,0.8,17.6,M,13.3,M,,0000*76
$SDDBS,157.93,f,48.14,M,26.32,F
$SDDBS,157.75,f,48.08,M,26.29,F
$GPRMC,160420.000,A,5737.6369,N,16401.4018,W,8.95,162.95,070621,,,A*71
$SDDBS,158.42,f,48.29,M,26.40,F
$GPGGA,160421.000,5737.6343,N,16401.4001,W,1,12,0.8,18.0,M,13.3,M,,0000*7E
$GPGSA,M,3,24,17,19,28,15,57,12,14,13,10,23,44,1.7,0.8,1.5*34
$GPGSV,3,1,12,24,69,266,47,17,43,079,45,19,41,119,44,28,41,065,43*71
$GPGSV,3,2,12,15,38,196,45,57,37,254,42,12,24,228,45,14,23,063,44*75
$GPGSV,3,3,12,13,22,162,38,10,21,300,43,23,17,266,42,44,12,128,35*7D
$GPRMC,160421.000,A,5737.6343,N,16401.4001,W,10.34,160.46,070621,,,A*4E
$GPGGA,160422.000,5737.6316,N,16401.3987,W,1,12,0.8,17.8,M,13.3,M,,0000*7A
$SDDBS,159.68,f,48.67,M,26.61,F
$GPRMC,160422.000,A,5737.6316,N,16401.3987,W,9.45,169.28,070621,,,A*72
$GPGGA,160423.000,5737.6290,N,16401.3986,W,1,12,0.8,17.5,M,13.3,M,,0000*78
$GPGSA,M,3,24,17,19,28,15,57,12,14,13,10,23,44,1.7,0.8,1.5*34
$GPRMC,160423.000,A,5737.6290,N,16401.3986,W,8.89,185.51,070621,,,A*70
$SDDBS,158.70,f,48.37,M,26.45,F
$GPGGA,160424.000,5737.6265,N,16401.3996,W,1,12,0.8,17.2,M,13.3,M,,0000*73
$GPRMC,160424.000,A,5737.6265,N,16401.3996,W,9.32,197.90,070621,,,A*73
$SDDBS,157.85,f,48.11,M,26.31,F
$GPGGA,160425.000,5737.6240,N,16401.4013,W,1,12,0.8,16.4,M,13.3,M,,0000*71
$GPGSA,M,3,24,17,19,28,15,57,12,14,13,10,23,44,1.7,0.8,1.5*34
$GPRMC,160425.000,A,5737.6240,N,16401.4013,W,9.39,200.62,070621,,,A*7D
$SDDBS,159.32,f,48.56,M,26.55,F
$SDDBS,161.75,f,49.30,M,26.96,F
$GPGGA,160426.000,5737.6215,N,16401.4023,W,1,12,0.8,15.5,M,13.3,M,,0000*73
$GPGSV,3,1,12,24,69,266,47,17,43,079,46,19,41,119,41,28,41,065,42*76
$GPGSV,3,2,12,15,38,196,42,57,37,254,42,12,24,228,45,14,23,063,40*76
$GPGSV,3,3,12,13,22,162,36,10,21,300,44,23,17,266,42,44,12,128,40*76
$GPRMC,160426.000,A,5737.6215,N,16401.4023,W,8.94,189.38,070621,,,A*76
$SDDBS,161.28,f,49.16,M,26.88,F
$GPGGA,160427.000,5737.6190,N,16401.4021,W,1,12,0.8,15.2,M,13.3,M,,0000*79
$GPGSA,M,3,24,17,19,28,15,57,12,14,13,10,23,44,1.7,0.8,1.5*34
$GPRMC,160427.000,A,5737.6190,N,16401.4021,W,8.85,173.32,070621,,,A*74
$SDDBS,158.53,f,48.32,M,26.42,F
$GPGGA,160428.000,5737.6165,N,16401.4014,W,1,12,0.8,15.2,M,13.3,M,,0000*7A
$GPRMC,160428.000,A,5737.6165,N,16401.4014,W,9.20,168.32,070621,,,A*73
$GPGGA,160429.000,5737.6140,N,16401.4004,W,1,12,0.8,15.4,M,13.3,M,,0000*7B
$GPGSA,M,3,24,17,19,28,15,57,12,14,13,10,23,44,1.7,0.8,1.5*34
$GPRMC,160429.000,A,5737.6140,N,16401.4004,W,8.79,167.51,070621,,,A*73
$SDDBS,156.48,f,47.70,M,26.08,F
$GPGGA,160430.000,5737.6116,N,16401.3997,W,1,12,0.8,15.4,M,13.3,M,,0000*74
$GPRMC,160430.000,A,5737.6116,N,16401.3997,W,9.09,175.62,070621,,,A*79
$GPGGA,160431.000,5737.6090,N,16401.3997,W,1,12,0.8,15.1,M,13.3,M,,0000*7F
$SDDBS,154.83,f,47.19,M,25.81,F
$SDDBS,154.90,f,47.21,M,25.82,F
$GPGSA,M,3,24,17,19,28,15,57,12,14,13,10,23,44,1.7,0.8,1.5*34
$GPGSV,3,1,12,24,69,266,47,17,43,079,46,19,41,119,42,28,41,065,43*74
$GPGSV,3,2,12,15,38,196,45,57,37,254,42,12,24,228,44,14,23,063,42*72
$GPGSV,3,3,12,13,22,162,38,10,21,300,43,23,17,266,42,44,12,128,37*7F
$GPRMC,160431.000,A,5737.6090,N,16401.3997,W,9.68,184.51,070621,,,A*7E
$SDDBS,159.44,f,48.60,M,26.57,F
$GPGGA,160432.000,5737.6064,N,16401.4003,W,1,12,0.8,14.9,M,13.3,M,,0000*7D
$GPRMC,160432.000,A,5737.6064,N,16401.4003,W,9.04,188.46,070621,,,A*75
$GPGGA,160433.000,5737.6039,N,16401.4010,W,1,12,0.8,15.0,M,13.3,M,,0000*7E
$SDDBS,163.70,f,49.90,M,27.28,F
$GPGSA,M,3,24,17,19,28,15,57,12,14,13,10,23,44,1.7,0.8,1.5*34
$GPRMC,160433.000,A,5737.6039,N,16401.4010,W,8.95,187.36,070621,,,A*7F
$GPGGA,160434.000,5737.6014,N,16401.4013,W,1,12,0.8,15.1,M,13.3,M,,0000*74
$SDDBS,163.72,f,49.90,M,27.29,F
$GPRMC,160434.000,A,5737.6014,N,16401.4013,W,9.46,181.78,070621,,,A*77
$GPGGA,160435.000,5737.5988,N,16401.4013,W,1,12,0.8,15.3,M,13.3,M,,0000*78
$GPGSA,M,3,24,17,19,28,15,57,12,14,13,10,23,44,1.7,0.8,1.5*34
$GPRMC,160435.000,A,5737.5988,N,16401.4013,W,9.11,176.96,070621,,,A*73
$SDDBS,161.06,f,49.09,M,26.84,F
$GPGGA,160436.000,5737.5963,N,16401.4008,W,1,12,0.8,15.6,M,13.3,M,,0000*71
$GPGSV,3,1,12,24,69,266,47,17,43,079,45,19,41,119,43,28,41,065,45*70
$GPGSV,3,2,12,15,38,196,46,57,37,254,42,12,24,228,44,14,23,063,42*71
$GPGSV,3,3,12,13,22,162,36,10,21,300,43,23,17,266,41,44,12,128,35*70
$GPRMC,160436.000,A,5737.5963,N,16401.4008,W,9.19,170.92,070621,,,A*75
$SDDBS,158.54,f,48.32,M,26.42,F
$SDDBS,156.08,f,47.57,M,26.01,F
$GPGGA,160437.000,5737.5937,N,16401.4001,W,1,12,0.8,15.8,M,13.3,M,,0000*76
$GPGSA,M,3,24,17,19,28,15,57,12,14,13,10,23,44,1.7,0.8,1.5*34
$GPRMC,160437.000,A,5737.5937,N,16401.4001,W,9.64,172.11,070621,,,A*7F
$SDDBS,156.45,f,47.68,M,26.07,F
$GPGGA,160438.000,5737.5911,N,16401.3997,W,1,12,0.8,15.6,M,13.3,M,,0000*72
$GPRMC,160438.000,A,5737.5911,N,16401.3997,W,9.74,177.46,070621,,,A*73
$SDDBS,157.92,f,48.13,M,26.32,F
$GPGGA,160439.000,5737.5886,N,16401.3999,W,1,12,0.8,15.4,M,13.3,M,,0000*70
$GPGSA,M,3,24,17,19,28,15,57,12,14,13,10,23,44,1.7,0.8,1.5*34
$GPRMC,160439.000,A,5737.5886,N,16401.3999,W,8.81,185.08,070621,,,A*7F
$GPGGA,160440.000,5737.5862,N,16401.4003,W,1,12,0.8,15.4,M,13.3,M,,0000*79
$GPRMC,160440.000,A,5737.5862,N,16401.4003,W,8.37,183.94,070621,,,A*78
$SDDBS,157.22,f,47.92,M,26.20,F
$GPGGA,160441.000,5737.5838,N,16401.4005,W,1,12,0.8,15.8,M,13.3,M,,0000*7D
$GPGSA,M,3,24,17,19,28,15,57,12,14,13,10,23,44,1.7,0.8,1.5*34
$GPGSV,3,1,12,24,69,266,46,17,43,079,45,19,41,119,43,28,41,065,45*71
$GPGSV,3,2,12,15,38,196,48,57,37,254,42,12,24,228,45,14,23,063,43*7F
$GPGSV,3,3,12,13,22,162,36,10,21,300,43,23,17,266,41,44,12,128,24*70
$GPRMC,160441.000,A,5737.5838,N,16401.4005,W,9.40,179.62,070621,,,A*7D
$SDDBS,158.48,f,48.30,M,26.41,F
$GPGGA,160442.000,5737.5812,N,16401.4005,W,1,12,0.8,15.8,M,13.3,M,,0000*76
$GPRMC,160442.000,A,5737.5812,N,16401.4005,W,9.66,179.91,070621,,,A*7E
$SDDBS,162.31,f,49.47,M,27.05,F
$SDDBS,164.20,f,50.05,M,27.37,F
$GPGGA,160443.000,5737.5785,N,16401.4002,W,1,12,0.8,16.2,M,13.3,M,,0000*78
$GPGSA,M,3,24,17,19,28,15,57,12,14,13,10,23,44,1.7,0.8,1.5*34
$GPRMC,160443.000,A,5737.5785,N,16401.4002,W,9.37,172.67,070621,,,A*7F
$GPGGA,160444.000,5737.5760,N,16401.3992,W,1,12,0.8,16.7,M,13.3,M,,0000*76
$SDDBS,161.15,f,49.12,M,26.86,F
$GPRMC,160444.000,A,5737.5760,N,16401.3992,W,9.07,166.52,070621,,,A*74
$SDDBS,157.10,f,47.88,M,26.18,F
$GPGGA,160445.000,5737.5735,N,16401.3981,W,1,12,0.8,17.1,M,13.3,M,,0000*72
$GPGSA,M,3,24,17,19,28,15,57,12,14,13,10,23,44,1.7,0.8,1.5*34
$GPRMC,160445.000,A,5737.5735,N,16401.3981,W,9.41,167.58,070621,,,A*7E
$GPGGA,160446.000,5737.5708,N,16401.3976,W,1,12,0.8,17.2,M,13.3,M,,0000*74
$GPGSV,3,1,12,24,69,266,46,17,43,079,46,19,41,119,43,28,41,065,45*72
$GPGSV,3,2,12,15,38,196,43,57,37,254,42,12,24,228,41,14,23,063,43*70
$GPGSV,3,3,12,13,22,162,30,10,21,300,43,23,17,266,42,44,12,128,35*75
$GPRMC,160446.000,A,5737.5708,N,16401.3976,W,10.87,178.30,070621,,,A*49
$SDDBS,157.04,f,47.87,M,26.17,F
$GPGGA,160447.000,5737.5679,N,16401.3979,W,1,12,0.8,16.7,M,13.3,M,,0000*79
$GPGSA,M,3,24,17,19,28,15,57,12,14,13,10,23,44,1.7,0.8,1.5*34
$GPRMC,160447.000,A,5737.5679,N,16401.3979,W,10.89,183.82,070621,,,A*43
$SDDBS,157.95,f,48.14,M,26.33,F
$SDDBS,157.20,f,47.91,M,26.20,F
$GPGGA,160448.000,5737.5653,N,16401.3987,W,1,12,0.8,16.4,M,13.3,M,,0000*7C
$GPRMC,160448.000,A,5737.5653,N,16401.3987,W,9.33,186.36,070621,,,A*76
$SDDBS,155.31,f,47.34,M,25.89,F
$GPGGA,160449.000,5737.5631,N,16401.3989,W,1,12,0.8,16.7,M,13.3,M,,0000*74
$GPGSA,M,3,24,17,19,28,15,57,12,14,13,10,23,44,1.7,0.8,1.5*34
$GPRMC,160449.000,A,5737.5631,N,16401.3989,W,8.73,173.84,070621,,,A*7B
$GPGGA,160450.000,5737.5607,N,16401.3981,W,1,12,0.8,17.1,M,13.3,M,,0000*76
$SDDBS,157.98,f,48.15,M,26.33,F
$GPRMC,160450.000,A,5737.5607,N,16401.3981,W,8.97,166.70,070621,,,A*7B
$GPGGA,160451.000,5737.5582,N,16401.3971,W,1,12,0.8,17.1,M,13.3,M,,0000*76
$SDDBS,162.76,f,49.61,M,27.13,F
$GPGSA,M,3,24,17,19,28,15,57,12,14,13,10,23,44,1.7,0.8,1.5*34
$GPGSV,3,1,12,24,69,266,46,17,43,079,45,19,41,119,43,28,41,065,43*77
$GPGSV,3,2,12,15,38,196,46,57,37,254,42,12,24,228,43,14,23,063,44*70
$GPGSV,3,3,12,13,22,162,37,10,21,300,43,23,17,266,42,44,12,128,32*75
$GPRMC,160451.000,A,5737.5582,N,16401.3971,W,10.10,170.74,070621,,,A*4E
$GPGGA,160452.000,5737.5556,N,16401.3968,W,1,12,0.8,17.0,M,13.3,M,,0000*75
$GPRMC,160452.000,A,5737.5556,N,16401.3968,W,9.12,179.67,070621,,,A*7D
$SDDBS,164.58,f,50.16,M,27.43,F
$GPGGA,160453.000,5737.5532,N,16401.3971,W,1,12,0.8,17.0,M,13.3,M,,0000*7E
$GPGSA,M,3,24,17,19,28,15,57,12,14,13,10,23,44,1.7,0.8,1.5*34
$GPRMC,160453.000,A,5737.5532,N,16401.3971,W,8.47,185.57,070621,,,A*77
$GPGGA,160454.000,5737.5508,N,16401.3976,W,1,12,0.8,17.2,M,13.3,M,,0000*75
$SDDBS,161.08,f,49.10,M,26.85,F
$SDDBS,157.11,f,47.89,M,26.19,F
$GPRMC,160454.000,A,5737.5508,N,16401.3976,W,9.28,185.54,070621,,,A*75
$SDDBS,156.07,f,47.57,M,26.01,F
$GPGGA,160455.000,5737.5483,N,16401.3981,W,1,12,0.8,17.1,M,13.3,M,,0000*7D
$GPGSA,M,3,24,17,19,28,15,57,12,14,13,10,23,44,1.7,0.8,1.5*34
$GPRMC,160455.000,A,5737.5483,N,16401.3981,W,9.50,184.97,070621,,,A*7F
$SDDBS,158.57,f,48.33,M,26.43,F
$GPGGA,160456.000,5737.5459,N,16401.3986,W,1,12,0.8,16.8,M,13.3,M,,0000*76
$GPGSV,3,1,12,24,69,266,45,17,43,079,46,19,41,119,44,28,41,065,45*76
$GPGSV,3,2,12,15,38,196,43,57,37,254,41,12,24,228,44,14,23,063,41*74
$GPGSV,3,3,12,13,22,162,41,10,21,300,43,23,17,266,43,44,12,128,38*7F
$GPRMC,160456.000,A,5737.5459,N,16401.3986,W,8.83,185.37,070621,,,A*78
$GPGGA,160457.000,5737.5435,N,16401.3989,W,1,12,0.8,17.0,M,13.3,M,,0000*7B
$GPGSA,M,3,24,17,19,28,15,57,12,14,13,10,23,44,1.7,0.8,1.5*34
$GPRMC,160457.000,A,5737.5435,N,16401.3989,W,8.73,180.23,070621,,,A*73
$SDDBS,158.93,f,48.44,M,26.49,F
$GPGGA,160458.000,5737.5409,N,16401.3987,W,1,12,0.8,17.3,M,13.3,M,,0000*76
$GPRMC,160458.000,A,5737.5409,N,16401.3987,W,9.39,174.08,070621,,,A*70
$SDDBS,160.10,f,48.80,M,26.68,F
$GPGGA,160459.000,5737.5384,N,16401.3982,W,1,12,0.8,17.7,M,13.3,M,,0000*74
$GPGSA,M,3,24,17,19,28,15,57,12,14,13,10,23,44,1.7,0.8,1.5*34
$GPRMC,160459.000,A,5737.5384,N,16401.3982,W,8.99,172.12,070621,,,A*70
$SDDBS,160.20,f,48.83,M,26.70,F
$SDDBS,158.78,f,48.40,M,26.46,F
$GPGGA,160500.000,5737.5359,N,16401.3977,W,1,12,0.8,18.0,M,13.3,M,,0000*7B
$GPRMC,160500.000,A,5737.5359,N,16401.3977,W,8.87,175.01,070621,,,A*7D
$GPGGA,160501.000,5737.5334,N,16401.3975,W,1,12,0.8,18.1,M,13.3,M,,0000*72
$SDDBS,158.44,f,48.29,M,26.41,F
$GPGSA,M,3,24,17,19,28,15,57,12,14,13,10,23,44,1.7,0.8,1.5*34
$GPGSV,3,1,12,24,69,266,46,17,43,079,46,19,41,119,43,28,41,065,48*7F
$GPGSV,3,2,12,15,38,196,46,57,37,254,41,12,24,228,45,14,23,063,40*71
$GPGSV,3,3,12,13,22,162,40,10,21,300,42,23,17,266,42,44,12,128,36*70
$GPRMC,160501.000,A,5737.5334,N,16401.3975,W,9.21,181.09,070621,,,A*7B
$SDDBS,159.62,f,48.65,M,26.60,F
$GPGGA,160502.000,5737.5309,N,16401.3980,W,1,12,0.8,18.1,M,13.3,M,,0000*75
$GPRMC,160502.000,A,5737.5309,N,16401.3980,W,8.94,188.91,070621,,,A*7B
$GPGGA,160503.000,5737.5285,N,16401.3988,W,1,12,0.8,18.2,M,13.3,M,,0000*7A
$GPGSA,M,3,24,17,19,28,15,57,12,14,13,10,23,44,1.7,0.8,1.5*34
$GPRMC,160503.000,A,5737.5285,N,16401.3988,W,8.95,190.03,070621,,,A*74
$GPGGA,160504.000,5737.5260,N,16401.3995,W,1,12,0.8,18.5,M,13.3,M,,0000*7D
$SDDBS,160.37,f,48.88,M,26.73,F
$SDDBS,159.79,f,48.70,M,26.63,F
$GPRMC,160504.000,A,5737.5260,N,16401.3995,W,8.73,185.29,070621,,,A*70
$GPGGA,160505.000,5737.5236,N,16401.3997,W,1,12,0.8,18.8,M,13.3,M,,0000*70
$GPGSA,M,3,24,17,19,28,15,57,12,14,13,10,23,44,1.7,0.8,1.5*34
$GPRMC,160505.000,A,5737.5236,N,16401.3997,W,8.97,178.84,070621,,,A*7F
$SDDBS,157.11,f,47.89,M,26.19,F
$GPGGA,160506.000,5737.5210,N,16401.3995,W,1,12,0.8,19.0,M,13.3,M,,0000*7C
$GPGSV,3,1,12,24,69,266,48,17,43,079,46,19,41,119,44,28,41,065,43*7D
$GPGSV,3,2,12,15,38,196,45,57,37,254,41,12,24,228,44,14,23,063,40*73
$GPGSV,3,3,12,13,22,162,37,10,21,300,44,23,17,266,42,44,12,128,38*78
$GPRMC,160506.000,A,5737.5210,N,16401.3995,W,9.94,176.34,070621,,,A*7D
$SDDBS,156.59,f,47.73,M,26.10,F
$SDDBS,159.13,f,48.50,M,26.52,F
$GPGGA,160507.000,5737.5183,N,16401.3994,W,1,12,0.8,18.9,M,13.3,M,,0000*7D
$GPGSA,M,3,24,17,19,28,15,57,12,14,13,10,23,44,1.7,0.8,1.5*34
$GPRMC,160507.000,A,5737.5183,N,16401.3994,W,9.68,178.25,070621,,,A*79
$SDDBS,160.95,f,49.06,M,26.83,F
$GPGGA,160508.000,5737.5157,N,16401.3992,W,1,12,0.8,19.0,M,13.3,M,,0000*75
$GPRMC,160508.000,A,5737.5157,N,16401.3992,W,9.04,176.42,070621,,,A*7C
$GPGGA,160509.000,5737.5132,N,16401.3987,W,1,12,0.8,19.3,M,13.3,M,,0000*70
$SDDBS,159.79,f,48.71,M,26.63,F
$GPGSA,M,3,24,17,19,28,15,57,12,14,13,10,23,44,1.7,0.8,1.5*34
$GPRMC,160509.000,A,5737.5132,N,16401.3987,W,9.11,172.40,070621,,,A*78
$SDDBS,159.24,f,48.54,M,26.54,F
$GPGGA,160510.000,5737.5108,N,16401.3982,W,1,12,0.8,19.7,M,13.3,M,,0000*70
$GPRMC,160510.000,A,5737.5108,N,16401.3982,W,9.21,173.92,070621,,,A*71
$GPGGA,160511.000,5737.5083,N,16401.3981,W,1,12,0.8,19.7,M,13.3,M,,0000*70
$GPGSA,M,3,24,17,19,28,15,57,12,14,13,10,23,44,1.7,0.8,1.5*34
$GPGSV,3,1,12,24,69,266,40,17,43,079,46,19,41,119,43,28,41,065,45*74
$GPGSV,3,2,12,15,38,196,46,57,37,254,41,12,24,228,44,14,23,063,42*72
$GPGSV,3,3,12,13,22,162,35,10,21,300,42,23,17,266,43,44,12,128,26*72
$GPRMC,160511.000,A,5737.5083,N,16401.3981,W,9.08,181.08,070621,,,A*74
$GPGGA,160512.000,5737.5056,N,16401.3984,W,1,12,0.8,19.6,M,13.3,M,,0000*7F
$SDDBS,160.11,f,48.80,M,26.69,F
$GPRMC,160512.000,A,5737.5056,N,16401.3984,W,9.30,181.81,070621,,,A*70
$SDDBS,160.25,f,48.84,M,26.71,F
$SDDBS,158.70,f,48.37,M,26.45,F
$GPGGA,160513.000,5737.5030,N,16401.3986,W,1,12,0.8,19.5,M,13.3,M,,0000*7F
$GPGSA,M,3,24,17,19,28,15,57,12,14,13,10,23,44,1.7,0.8,1.5*34
$GPRMC,160513.000,A,5737.5030,N,16401.3986,W,8.55,182.25,070621,,,A*7C
$SDDBS,158.44,f,48.29,M,26.41,F
$GPGGA,160514.000,5737.5005,N,16401.3986,W,1,12,0.8,19.7,M,13.3,M,,0000*7C
$GPRMC,160514.000,A,5737.5005,N,16401.3986,W,8.62,179.42,070621,,,A*7C
$GPGGA,160515.000,5737.4979,N,16401.3984,W,1,12,0.8,20.0,M,13.3,M,,0000*71
$SDDBS,157.88,f,48.12,M,26.31,F
$GPGSA,M,3,24,17,19,28,15,57,12,14,13,10,23,44,1.7,0.8,1.5*34
$GPRMC,160515.000,A,5737.4979,N,16401.3984,W,9.76,175.75,070621,,,A*70
$GPGGA,160516.000,5737.4952,N,16401.3979,W,1,12,0.8,20.0,M,13.3,M,,0000*79
$GPGSV,3,1,12,24,69,266,42,17,43,079,46,19,41,119,44,28,41,065,44*70
$GPGSV,3,2,12,15,38,196,48,57,37,254,41,12,24,228,44,14,23,063,44*7A
$GPGSV,3,3,12,13,22,162,37,10,21,300,42,23,17,266,43,44,12,128,30*77
$GPRMC,160516.000,A,5737.4952,N,16401.3979,W,9.70,174.08,070621,,,A*75
$GPGGA,160517.000,5737.4927,N,16401.3972,W,1,12,0.8,20.2,M,13.3,M,,0000*73
$SDDBS,157.33,f,47.96,M,26.22,F
$SDDBS,157.82,f,48.10,M,26.30,F
$GPGSA,M,3,24,17,19,28,15,57,12,14,13,10,23,44,1.7,0.8,1.5*34
$GPRMC,160517.000,A,5737.4927,N,16401.3972,W,9.15,171.28,070621,,,A*79
$SDDBS,158.74,f,48.38,M,26.46,F
$GPGGA,160518.000,5737.4902,N,16401.3964,W,1,12,0.8,20.6,M,13.3,M,,0000*78
$GPRMC,160518.000,A,5737.4902,N,16401.3964,W,9.09,170.57,070621,,,A*72
$GPGGA,160519.000,5737.4877,N,16401.3959,W,1,12,0.8,20.8,M,13.3,M,,0000*7A
$GPGSA,M,3,24,17,19,28,15,57,12,14,13,10,23,44,1.7,0.8,1.5*34
$GPRMC,160519.000,A,5737.4877,N,16401.3959,W,9.29,175.85,070621,,,A*76
$SDDBS,159.06,f,48.48,M,26.51,F
$GPGGA,160520.000,5737.4851,N,16401.3959,W,1,12,0.8,20.6,M,13.3,M,,0000*7A
$GPRMC,160520.000,A,5737.4851,N,16401.3959,W,9.79,181.49,070621,,,A*76
$GPGGA,160521.000,5737.4825,N,16401.3964,W,1,12,0.8,20.2,M,13.3,M,,0000*72
$SDDBS,159.56,f,48.63,M,26.59,F
$SDDBS,160.89,f,49.04,M,26.81,F
$GPGSA,M,3,24,17,19,28,15,57,12,14,13,10,23,44,1.7,0.8,1.5*34
$GPGSV,3,1,12,24,69,266,46,17,43,079,46,19,41,119,44,28,41,065,44*74
$GPGSV,3,2,12,15,38,196,48,57,37,254,42,12,24,228,45,14,23,063,39*72
$GPGSV,3,3,12,13,22,162,33,10,21,300,43,23,17,266,42,44,12,128,34*77
$GPRMC,160521.000,A,5737.4825,N,16401.3964,W,8.85,185.79,070621,,,A*7F
$SDDBS,161.04,f,49.08,M,26.84,F
$GPGGA,160522.000,5737.4801,N,16401.3967,W,1,12,0.8,20.2,M,13.3,M,,0000*74
$GPRMC,160522.000,A,5737.4801,N,16401.3967,W,8.20,180.87,070621,,,A*72
$SDDBS,159.66,f,48.67,M,26.61,F
$GPGGA,160523.000,5737.4776,N,16401.3965,W,1,12,0.8,20.6,M,13.3,M,,0000*7C
$GPGSA,M,3,24,17,19,28,15,57,12,14,13,10,23,44,1.7,0.8,1.5*34
$GPRMC,160523.000,A,5737.4776,N,16401.3965,W,9.18,174.24,070621,,,A*76
$GPGGA,160524.000,5737.4750,N,16401.3959,W,1,12,0.8,20.6,M,13.3,M,,0000*70
$GPRMC,160524.000,A,5737.4750,N,16401.3959,W,9.24,171.56,070621,,,A*75
$SDDBS,157.28,f,47.94,M,26.21,F
$GPGGA,160525.000,5737.4725,N,16401.3953,W,1,12,0.8,20.5,M,13.3,M,,0000*7A
$GPGSA,M,3,24,17,19,28,15,57,12,14,13,10,23,44,1.7,0.8,1.5*34
$GPRMC,160525.000,A,5737.4725,N,16401.3953,W,9.48,173.02,070621,,,A*75
$SDDBS,156.40,f,47.67,M,26.07,F
$GPGGA,160526.000,5737.4698,N,16401.3950,W,1,12,0.8,20.3,M,13.3,M,,0000*7B
$GPGSV,3,1,12,24,69,266,42,17,43,079,45,19,41,119,38,28,41,065,44*78
$GPGSV,3,2,12,15,38,196,48,57,37,254,42,12,24,228,45,14,23,063,40*7C
$GPGSV,3,3,12,13,22,162,39,10,21,300,43,23,17,266,43,44,12,128,28*71
$GPRMC,160526.000,A,5737.4698,N,16401.3950,W,9.08,180.31,070621,,,A*7A
$SDDBS,155.88,f,47.51,M,25.98,F
$SDDBS,157.06,f,47.87,M,26.18,F
$GPGGA,160527.000,5737.4673,N,16401.3955,W,1,12,0.8,20.2,M,13.3,M,,0000*7B
$GPGSA,M,3,24,17,19,28,15,57,12,14,13,10,23,44,1.7,0.8,1.5*34
$GPRMC,160527.000,A,5737.4673,N,16401.3955,W,9.23,190.26,070621,,,A*75
$SDDBS,159.88,f,48.73,M,26.65,F
$GPGGA,160528.000,5737.4648,N,16401.3966,W,1,12,0.8,20.3,M,13.3,M,,0000*7D
$GPRMC,160528.000,A,5737.4648,N,16401.3966,W,9.36,190.60,070621,,,A*74
$SDDBS,163.66,f,49.88,M,27.28,F
$GPGGA,160529.000,5737.4623,N,16401.3970,W,1,12,0.8,20.7,M,13.3,M,,0000*72
$GPGSA,M,3,24,17,19,28,15,57,12,14,13,10,23,44,1.7,0.8,1.5*34
$GPRMC,160529.000,A,5737.4623,N,16401.3970,W,9.05,180.28,070621,,,A*72
$GPGGA,160530.000,5737.4596,N,16401.3963,W,1,12,0.8,21.4,M,13.3,M,,0000*77
$GPRMC,160530.000,A,5737.4596,N,16401.3963,W,9.90,166.54,070621,,,A*7A
$SDDBS,163.82,f,49.93,M,27.30,F
$GPGGA,160531.000,5737.4569,N,16401.3950,W,1,12,0.8,21.7,M,13.3,M,,0000*75
$GPGSA,M,3,24,17,19,28,15,57,12,14,13,10,23,44,1.7,0.8,1.5*34
$GPGSV,3,1,12,24,69,266,43,17,43,079,45,19,41,119,43,28,41,065,44*75
$GPGSV,3,2,12,15,38,196,48,57,37,254,43,12,24,228,44,14,23,063,40*7C
$GPGSV,3,3,12,13,22,162,42,10,21,300,44,23,17,266,42,44,12,128,37*75
$GPRMC,160531.000,A,5737.4569,N,16401.3950,W,10.15,166.52,070621,,,A*48
$SDDBS,158.51,f,48.31,M,26.42,F
$GPGGA,160532.000,5737.4542,N,16401.3941,W,1,12,0.8,21.6,M,13.3,M,,0000*7E
$GPRMC,160532.000,A,5737.4542,N,16401.3941,W,9.30,172.95,070621,,,A*73
$SDDBS,155.06,f,47.26,M,25.84,F
$SDDBS,155.52,f,47.40,M,25.92,F
$GPGGA,160533.000,5737.4518,N,16401.3941,W,1,12,0.8,21.3,M,13.3,M,,0000*75
$GPGSA,M,3,24,17,19,28,15,57,12,14,13,10,23,44,1.7,0.8,1.5*34
$GPRMC,160533.000,A,5737.4518,N,16401.3941,W,8.47,187.40,070621,,,A*7E
$GPGGA,160534.000,5737.4494,N,16401.3952,W,1,12,0.8,20.7,M,13.3,M,,0000*70
$SDDBS,158.53,f,48.32,M,26.42,F
$GPRMC,160534.000,A,5737.4494,N,16401.3952,W,10.11,193.74,070621,,,A*46
$SDDBS,161.40,f,49.19,M,26.90,F
$GPGGA,160535.000,5737.4467,N,16401.3966,W,1,12,0.8,19.9,M,13.3,M,,0000*7E
$GPGSA,M,3,24,17,19,28,15,57,12,14,13,10,23,44,1.7,0.8,1.5*34
$GPRMC,160535.000,A,5737.4467,N,16401.3966,W,9.81,193.30,070621,,,A*7D
$GPGGA,160536.000,5737.4442,N,16401.3971,W,1,12,0.8,19.8,M,13.3,M,,0000*7D
$GPGSV,3,1,12,24,69,266,46,17,43,079,45,19,41,119,44,28,41,065,44*77
$GPGSV,3,2,12,15,38,196,41,57,37,254,43,12,24,228,45,14,23,063,40*74
$GPGSV,3,3,12,13,22,162,38,10,21,300,43,23,17,266,42,44,12,128,38*70
$GPRMC,160536.000,A,5737.4442,N,16401.3971,W,8.49,179.44,070621,,,A*7D
$SDDBS,161.65,f,49.27,M,26.94,F
$GPGGA,160537.000,5737.4418,N,16401.3964,W,1,12,0.8,20.4,M,13.3,M,,0000*71
$GPGSA,M,3,24,17,19,28,15,57,12,14,13,10,23,44,1.7,0.8,1.5*34
$GPRMC,160537.000,A,5737.4418,N,16401.3964,W,8.39,166.85,070621,,,A*73
$SDDBS,158.42,f,48.29,M,26.40,F
$SDDBS,155.99,f,47.55,M,26.00,F
$GPGGA,160538.000,5737.4394,N,16401.3949,W,1,12,0.8,20.9,M,13.3,M,,0000*7F
$GPRMC,160538.000,A,5737.4394,N,16401.3949,W,9.72,163.39,070621,,,A*7C
$SDDBS,157.17,f,47.91,M,26.19,F
$GPGGA,160539.000,5737.4368,N,16401.3939,W,1,12,0.8,20.8,M,13.3,M,,0000*7B
$GPGSA,M,3,24,17,19,28,15,57,12,14,13,10,23,44,1.7,0.8,1.5*34
$GPRMC,160539.000,A,5737.4368,N,16401.3939,W,9.98,174.24,070621,,,A*77
$SDDBS,160.52,f,48.93,M,26.75,F
$GPGGA,160540.000,5737.4341,N,16401.3939,W,1,12,0.8,20.1,M,13.3,M,,0000*77
$GPRMC,160540.000,A,5737.4341,N,16401.3939,W,9.85,184.88,070621,,,A*77
$GPGGA,160541.000,5737.4316,N,16401.3946,W,1,12,0.8,19.8,M,13.3,M,,0000*7F
$SDDBS,162.20,f,49.44,M,27.03,F
$GPGSA,M,3,24,17,19,28,15,57,12,14,13,10,23,44,1.7,0.8,1.5*34
$GPGSV,3,1,12,24,69,266,46,17,43,079,46,19,41,119,44,28,41,065,44*74
$GPGSV,3,2,12,15,38,196,48,57,37,254,42,12,24,228,44,14,23,063,42*7F
$GPGSV,3,3,12,13,22,162,39,10,21,300,43,23,17,266,42,44,12,128,35*7C
$GPRMC,160541.000,A,5737.4316,N,16401.3946,W,8.70,189.69,070621,,,A*75
$GPGGA,160542.000,5737.4293,N,16401.3952,W,1,12,0.8,19.9,M,13.3,M,,0000*74
$GPRMC,160542.000,A,5737.4293,N,16401.3952,W,8.58,185.16,070621,,,A*71
$SDDBS,161.46,f,49.21,M,26.91,F
$GPGGA,160543.000,5737.4268,N,16401.3955,W,1,12,0.8,20.1,M,13.3,M,,0000*74
$GPGSA,M,3,24,17,19,28,15,57,12,14,13,10,23,44,1.7,0.8,1.5*34
$GPRMC,160543.000,A,5737.4268,N,16401.3955,W,9.57,179.97,070621,,,A*77
$SDDBS,158.96,f,48.45,M,26.49,F
$SDDBS,154.86,f,47.20,M,25.81,F
$GPGGA,160544.000,5737.4242,N,16401.3954,W,1,12,0.8,20.0,M,13.3,M,,0000*7B
$GPRMC,160544.000,A,5737.4242,N,16401.3954,W,9.23,178.11,070621,,,A*75
$GPGGA,160545.000,5737.4217,N,16401.3950,W,1,12,0.8,20.1,M,13.3,M,,0000*7F
$SDDBS,153.66,f,46.84,M,25.61,F
$GPGSA,M,3,24,17,19,28,15,57,12,14,13,10,23,44,1.7,0.8,1.5*34
$GPRMC,160545.000,A,5737.4217,N,16401.3950,W,9.18,174.82,070621,,,A*7E
$SDDBS,156.87,f,47.81,M,26.14,F
$GPGGA,160546.000,5737.4192,N,16401.3947,W,1,12,0.8,20.0,M,13.3,M,,0000*75
$GPGSV,3,1,12,24,69,266,46,17,43,079,46,19,41,119,44,28,41,065,46*76
$GPGSV,3,2,12,15,38,196,47,57,37,254,42,12,24,228,44,14,23,063,43*71
$GPGSV,3,3,12,13,22,162,30,10,21,300,43,23,17,266,40,44,12,128,37*75
$GPRMC,160546.000,A,5737.4192,N,16401.3947,W,9.67,177.13,070621,,,A*76
$GPGGA,160547.000,5737.4166,N,16401.3946,W,1,12,0.8,19.9,M,13.3,M,,0000*7D
$GPGSA,M,3,24,17,19,28,15,57,12,14,13,10,23,44,1.7,0.8,1.5*34
$GPRMC,160547.000,A,5737.4166,N,16401.3946,W,9.04,179.02,070621,,,A*76
$SDDBS,161.65,f,49.27,M,26.94,F
$GPGGA,160548.000,5737.4142,N,16401.3944,W,1,11,0.8,20.1,M,13.3,M,,0000*77
$GPGSA,M,3,24,17,19,28,15,57,12,14,13,10,23,,1.9,0.8,1.7*38
$GPRMC,160548.000,A,5737.4142,N,16401.3944,W,8.60,178.20,070621,,,A*7F
$SDDBS,163.90,f,49.96,M,27.32,F
$GPGGA,160549.000,5737.4117,N,16401.3942,W,1,11,0.8,20.2,M,13.3,M,,0000*73
$GPRMC,160549.000,A,5737.4117,N,16401.3942,W,9.22,176.67,070621,,,A*72
$SDDBS,162.70,f,49.59,M,27.12,F
$SDDBS,159.00,f,48.46,M,26.50,F
$GPGGA,160550.000,5737.4092,N,16401.3940,W,1,11,0.8,20.0,M,13.3,M,,0000*77
$GPGSA,M,3,24,17,19,28,15,57,12,14,13,10,23,,1.9,0.8,1.7*38
$GPRMC,160550.000,A,5737.4092,N,16401.3940,W,9.60,178.64,070621,,,A*7F
$SDDBS,157.37,f,47.96,M,26.23,F
$GPGGA,160551.000,5737.4067,N,16401.3940,W,1,12,0.8,19.6,M,13.3,M,,0000*73
$GPGSA,M,3,24,17,19,28,15,57,12,14,13,10,23,44,1.7,0.8,1.5*34
$GPGSV,3,1,12,24,69,266,41,17,43,079,46,19,41,119,44,28,41,065,47*70
$GPGSV,3,2,12,15,38,196,45,57,37,254,42,12,24,228,44,14,23,063,42*72
$GPGSV,3,3,12,13,22,162,37,10,21,300,40,23,17,266,42,44,12,128,33*77
$GPRMC,160551.000,A,5737.4067,N,16401.3940,W,9.00,182.11,070621,,,A*75
$GPGGA,160552.000,5737.4044,N,16401.3941,W,1,12,0.8,19.4,M,13.3,M,,0000*72
$SDDBS,158.65,f,48.36,M,26.44,F
$GPRMC,160552.000,A,5737.4044,N,16401.3941,W,8.56,179.72,070621,,,A*75
$GPGGA,160553.000,5737.4020,N,16401.3939,W,1,12,0.8,19.6,M,13.3,M,,0000*7C
$GPGSA,M,3,24,17,19,28,15,57,12,14,13,10,23,44,1.7,0.8,1.5*34
$GPRMC,160553.000,A,5737.4020,N,16401.3939,W,9.17,176.46,070621,,,A*75
$GPGGA,160554.000,5737.3995,N,16401.3935,W,1,12,0.8,19.6,M,13.3,M,,0000*77
$SDDBS,157.79,f,48.10,M,26.30,F
$GPRMC,160554.000,A,5737.3995,N,16401.3935,W,9.22,175.65,070621,,,A*7A
$GPGGA,160555.000,5737.3969,N,16401.3933,W,1,12,0.8,19.4,M,13.3,M,,0000*71
$GPGSA,M,3,24,17,19,28,15,57,12,14,13,10,23,44,1.7,0.8,1.5*34
$SDDBS,155.57,f,47.42,M,25.93,F
$SDDBS,156.75,f,47.78,M,26.13,F
$GPRMC,160555.000,A,5737.3969,N,16401.3933,W,9.84,179.59,070621,,,A*71
$GPGGA,160556.000,5737.3942,N,16401.3935,W,1,12,0.8,19.2,M,13.3,M,,0000*7B
$GPGSV,3,1,12,24,69,266,44,17,43,079,46,19,41,119,44,28,41,065,45*77
$SDDBS,162.11,f,49.41,M,27.02,F
$GPGSV,3,2,12,15,38,196,46,57,37,254,41,12,24,228,44,14,23,063,40*70
$GPGSV,3,3,12,13,22,162,32,10,21,300,44,23,17,266,42,44,12,128,37*72
$GPRMC,160556.000,A,5737.3942,N,16401.3935,W,9.98,183.60,070621,,,A*7F
$GPGGA,160557.000,5737.3916,N,16401.3941,W,1,12,0.8,18.8,M,13.3,M,,0000*73
$GPGSA,M,3,24,17,19,28,15,57,12,14,13,10,23,44,1.7,0.8,1.5*34
$SDDBS,163.86,f,49.94,M,27.31,F
$GPRMC,160557.000,A,5737.3916,N,16401.3941,W,9.02,187.28,070621,,,A*77
$GPGGA,160558.000,5737.3893,N,16401.3944,W,1,12,0.8,18.7,M,13.3,M,,0000*7A
$GPRMC,160558.000,A,5737.3893,N,16401.3944,W,7.96,180.68,070621,,,A*71
$GPGGA,160559.000,5737.3870,N,16401.3939,W,1,12,0.8,18.6,M,13.3,M,,0000*7D
$GPGSA,M,3,24,17,19,28,15,57,12,14,13,10,23,44,1.7,0.8,1.5*34
$SDDBS,160.98,f,49.07,M,26.83,F
$GPRMC,160559.000,A,5737.3870,N,16401.3939,W,8.99,171.57,070621,,,A*75
$GPGGA,160600.000,5737.3842,N,16401.3930,W,1,12,0.8,18.6,M,13.3,M,,0000*7A
$SDDBS,159.23,f,48.53,M,26.54,F
$GPRMC,160600.000,A,5737.3842,N,16401.3930,W,10.20,171.80,070621,,,A*43
$GPGGA,160601.000,5737.3815,N,16401.3926,W,1,12,0.8,18.4,M,13.3,M,,0000*7C
$GPGSA,M,3,24,17,19,28,15,57,12,14,13,10,23,44,1.7,0.8,1.5*34
$GPGSV,3,1,12,24,69,266,43,17,43,079,46,19,41,119,44,28,41,065,44*71
$GPGSV,3,2,12,15,38,196,46,57,37,254,42,12,24,228,44,14,23,063,40*73
$SDDBS,160.22,f,48.83,M,26.70,F
$SDDBS,158.74,f,48.38,M,26.46,F
$GPGSV,3,3,12,13,22,162,40,10,21,300,44,23,17,266,41,44,12,128,36*75
$GPRMC,160601.000,A,5737.3815,N,16401.3926,W,9.46,177.16,070621,,,A*76
$GPGGA,160602.000,5737.3789,N,16401.3927,W,1,12,0.8,18.3,M,13.3,M,,0000*73
$SDDBS,157.28,f,47.94,M,26.21,F
$GPRMC,160602.000,A,5737.3789,N,16401.3927,W,9.03,184.98,070621,,,A*75
$GPGGA,160603.000,5737.3764,N,16401.3934,W,1,12,0.8,18.6,M,13.3,M,,0000*76
$GPGSA,M,3,24,17,19,28,15,57,12,14,13,10,23,44,1.7,0.8,1.5*34
$SDDBS,157.38,f,47.97,M,26.23,F
$GPRMC,160603.000,A,5737.3764,N,16401.3934,W,9.12,187.78,070621,,,A*78
$GPGGA,160604.000,5737.3739,N,16401.3938,W,1,12,0.8,19.1,M,13.3,M,,0000*73
$GPRMC,160604.000,A,5737.3739,N,16401.3938,W,9.06,180.88,070621,,,A*76
$GPGGA,160605.000,5737.3714,N,16401.3936,W,1,12,0.8,19.3,M,13.3,M,,0000*71
$GPGSA,M,3,24,17,19,28,15,57,12,14,13,10,23,44,1.7,0.8,1.5*34
$SDDBS,158.66,f,48.36,M,26.44,F
$GPRMC,160605.000,A,5737.3714,N,16401.3936,W,9.60,175.72,070621,,,A*79
$GPGGA,160606.000,5737.3686,N,16401.3934,W,1,12,0.8,19.1,M,13.3,M,,0000*78
$GPGSV,3,1,12,24,69,266,49,17,43,079,45,19,41,119,44,28,41,065,44*78
$GPGSV,3,2,12,15,38,196,43,57,37,254,43,12,24,228,43,14,23,063,40*70
$SDDBS,159.87,f,48.73,M,26.64,F
$SDDBS,161.44,f,49.21,M,26.91,F
$GPGSV,3,3,12,13,22,162,36,10,21,300,43,23,17,266,41,44,12,128,36*73
$GPRMC,160606.000,A,5737.3686,N,16401.3934,W,10.10,178.82,070621,,,A*4F
$GPGGA,160607.000,5737.3660,N,16401.3937,W,1,12,0.8,18.6,M,13.3,M,,0000*74
$GPGSA,M,3,24,17,19,28,15,57,12,14,13,10,23,44,1.7,0.8,1.5*34
$SDDBS,161.86,f,49.33,M,26.98,F
$GPRMC,160607.000,A,5737.3660,N,16401.3937,W,9.37,184.43,070621,,,A*76
$GPGGA,160608.000,5737.3636,N,16401.3937,W,1,12,0.8,18.3,M,13.3,M,,0000*7D
$GPRMC,160608.000,A,5737.3636,N,16401.3937,W,8.82,176.26,070621,,,A*7B
$SDDBS,159.87,f,48.73,M,26.65,F
$GPGGA,160609.000,5737.3611,N,16401.3928,W,1,12,0.8,18.3,M,13.3,M,,0000*77
$GPGSA,M,3,24,17,19,28,15,57,12,14,13,10,23,44,1.7,0.8,1.5*34
$SDDBS,156.86,f,47.81,M,26.14,F
$GPRMC,160609.000,A,5737.3611,N,16401.3928,W,9.62,166.03,070621,,,A*78
$GPGGA,160610.000,5737.3585,N,16401.3913,W,1,12,0.8,18.1,M,13.3,M,,0000*7B
$GPRMC,160610.000,A,5737.3585,N,16401.3913,W,9.92,165.11,070621,,,A*79
$GPGGA,160611.000,5737.3557,N,16401.3905,W,1,12,0.8,17.9,M,13.3,M,,0000*75
$GPGSA,M,3,24,17,19,28,15,57,12,14,13,10,23,44,1.7,0.8,1.5*34
$GPGSV,3,1,12,24,69,266,45,17,43,079,46,19,41,119,44,28,41,065,45*76
$SDDBS,155.56,f,47.42,M,25.93,F
$GPGSV,3,2,12,15,38,196,45,57,37,254,42,12,24,228,44,14,23,063,41*71
$GPGSV,3,3,12,13,22,162,35,10,21,300,44,23,17,266,40,44,12,128,31*71
$GPRMC,160611.000,A,5737.3557,N,16401.3905,W,10.02,174.91,070621,,,A*49
$GPGGA,160612.000,5737.3530,N,16401.3904,W,1,12,0.8,17.3,M,13.3,M,,0000*7C
$SDDBS,157.32,f,47.95,M,26.22,F
$SDDBS,159.84,f,48.72,M,26.64,F
$GPRMC,160612.000,A,5737.3530,N,16401.3904,W,8.79,184.36,070621,,,A*7D
$GPGGA,160613.000,5737.3506,N,16401.3912,W,1,12,0.8,17.4,M,13.3,M,,0000*78
$GPGSA,M,3,24,17,19,28,15,57,12,14,13,10,23,44,1.7,0.8,1.5*34
$SDDBS,161.30,f,49.17,M,26.88,F
$GPRMC,160613.000,A,5737.3506,N,16401.3912,W,8.63,193.45,070621,,,A*77
$GPGGA,160614.000,5737.3481,N,16401.3923,W,1,12,0.8,17.4,M,13.3,M,,0000*73
$SDDBS,161.23,f,49.14,M,26.87,F
$GPRMC,160614.000,A,5737.3481,N,16401.3923,W,9.81,193.22,070621,,,A*70
$GPGGA,160615.000,5737.3454,N,16401.3934,W,1,12,0.8,17.1,M,13.3,M,,0000*79
$GPGSA,M,3,24,17,19,28,15,57,12,14,13,10,23,44,1.7,0.8,1.5*34
$GPRMC,160615.000,A,5737.3454,N,16401.3934,W,9.69,189.19,070621,,,A*7A
$GPGGA,160616.000,5737.3430,N,16401.3938,W,1,12,0.8,17.0,M,13.3,M,,0000*75
$GPGSV,3,1,12,24,69,266,48,17,43,079,46,19,41,119,44,28,41,065,44*7A
$SDDBS,161.26,f,49.15,M,26.88,F
$GPGSV,3,2,12,15,38,196,41,57,37,254,42,12,24,228,45,14,23,063,40*75
$GPGSV,3,3,12,13,22,162,43,10,21,300,42,23,17,266,42,44,12,128,40*72
$GPRMC,160616.000,A,5737.3430,N,16401.3938,W,8.44,180.18,070621,,,A*71
$GPGGA,160617.000,5737.3408,N,16401.3931,W,1,12,0.8,17.5,M,13.3,M,,0000*73
$GPGSA,M,3,24,17,19,28,15,57,12,14,13,10,23,44,1.7,0.8,1.5*34
$SDDBS,160.99,f,49.07,M,26.83,F
$GPRMC,160617.000,A,5737.3408,N,16401.3931,W,8.28,167.90,070621,,,A*71
$GPGGA,160618.000,5737.3384,N,16401.3918,W,1,12,0.8,18.1,M,13.3,M,,0000*7F
$SDDBS,157.75,f,48.08,M,26.29,F
$SDDBS,154.35,f,47.04,M,25.72,F
$GPRMC,160618.000,A,5737.3384,N,16401.3918,W,9.87,164.92,070621,,,A*73
$GPGGA,160619.000,5737.3356,N,16401.3907,W,1,12,0.8,18.2,M,13.3,M,,0000*7C
$GPGSA,M,3,24,17,19,28,15,57,12,14,13,10,23,44,1.7,0.8,1.5*34
$SDDBS,155.64,f,47.44,M,25.94,F
$GPRMC,160619.000,A,5737.3356,N,16401.3907,W,9.48,172.37,070621,,,A*78
$GPGGA,160620.000,5737.3329,N,16401.3904,W,1,12,0.8,17.8,M,13.3,M,,0000*78
$SDDBS,159.89,f,48.74,M,26.65,F
$GPRMC,160620.000,A,5737.3329,N,16401.3904,W,8.89,185.11,070621,,,A*79
$GPGGA,160621.000,5737.3305,N,16401.3915,W,1,12,0.8,17.6,M,13.3,M,,0000*79
$GPGSA,M,3,24,17,19,28,15,57,12,14,13,10,23,44,1.7,0.8,1.5*34
$GPGSV,3,1,12,24,69,266,45,17,43,079,47,19,41,119,45,28,41,065,45*76
$GPGSV,3,2,12,15,38,196,37,57,37,254,42,12,24,228,44,14,23,063,40*75
$GPGSV,3,3,12,13,22,162,36,10,21,300,43,23,17,266,42,44,12,128,36*70
$GPRMC,160621.000,A,5737.3305,N,16401.3915,W,8.82,199.39,070621,,,A*7A
$GPGGA,160622.000,5737.3281,N,16401.3930,W,1,12,0.8,17.3,M,13.3,M,,0000*75
$SDDBS,163.86,f,49.94,M,27.31,F
$GPRMC,160622.000,A,5737.3281,N,16401.3930,W,9.59,197.26,070621,,,A*74
$GPGGA,160623.000,5737.3254,N,16401.3938,W,1,12,0.8,17.0,M,13.3,M,,0000*77
$GPGSA,M,3,24,17,19,28,15,57,12,14,13,10,23,44,1.7,0.8,1.5*34
$SDDBS,163.82,f,49.93,M,27.30,F
$SDDBS,162.26,f,49.46,M,27.04,F
$GPRMC,160623.000,A,5737.3254,N,16401.3938,W,9.03,183.49,070621,,,A*76
$GPGGA,160624.000,5737.3228,N,16401.3935,W,1,12,0.8,17.0,M,13.3,M,,0000*76
$SDDBS,159.75,f,48.69,M,26.62,F
$GPRMC,160624.000,A,5737.3228,N,16401.3935,W,8.39,173.15,070621,,,A*79
$GPGGA,160625.000,5737.3203,N,16401.3927,W,1,12,0.8,17.1,M,13.3,M,,0000*7C
$GPGSA,M,3,24,17,19,28,15,57,12,14,13,10,23,44,1.7,0.8,1.5*34
$SDDBS,158.19,f,48.22,M,26.36,F
$GPRMC,160625.000,A,5737.3203,N,16401.3927,W,9.42,168.83,070621,,,A*7A
$GPGGA,160626.000,5737.3175,N,16401.3918,W,1,12,0.8,17.0,M,13.3,M,,0000*70
$GPGSV,3,1,12,24,69,266,46,17,43,079,46,19,41,119,44,28,41,065,44*74
$GPGSV,3,2,12,15,38,196,46,57,37,254,42,12,24,228,45,14,23,063,40*72
$SDDBS,158.06,f,48.18,M,26.34,F
$GPGSV,3,3,12,13,22,162,35,10,21,300,43,23,17,266,42,44,12,128,35*70
$GPRMC,160626.000,A,5737.3175,N,16401.3918,W,10.40,171.66,070621,,,A*4E
$GPGGA,160627.000,5737.3148,N,16401.3914,W,1,12,0.8,16.8,M,13.3,M,,0000*7A
$GPGSA,M,3,24,17,19,28,15,57,12,14,13,10,23,44,1.7,0.8,1.5*34
$GPRMC,160627.000,A,5737.3148,N,16401.3914,W,8.98,181.78,070621,,,A*71
$GPGGA,160628.000,5737.3123,N,16401.3916,W,1,12,0.8,16.9,M,13.3,M,,0000*7B
$SDDBS,159.06,f,48.48,M,26.51,F
$GPRMC,160628.000,A,5737.3123,N,16401.3916,W,8.57,183.11,070621,,,A*7F
$GPGGA,160629.000,5737.3100,N,16401.3919,W,1,12,0.8,17.1,M,13.3,M,,0000*7D
$GPGSA,M,3,24,17,19,28,15,57,12,14,13,10,23,44,1.7,0.8,1.5*34
$SDDBS,158.59,f,48.34,M,26.43,F
$GPRMC,160629.000,A,5737.3100,N,16401.3919,W,8.48,183.77,070621,,,A*7E
$GPGGA,160630.000,5737.3075,N,16401.3921,W,1,12,0.8,17.1,M,13.3,M,,0000*7D
$SDDBS,159.92,f,48.74,M,26.65,F
$GPRMC,160630.000,A,5737.3075,N,16401.3921,W,9.45,182.03,070621,,,A*70
$GPGGA,160631.000,5737.3048,N,16401.3922,W,1,12,0.8,17.0,M,13.3,M,,0000*70
$GPGSA,M,3,24,17,19,28,15,57,12,14,13,10,23,44,1.7,0.8,1.5*34
$GPGSV,3,1,12,24,69,266,47,17,43,079,46,19,41,119,44,28,41,065,45*74
$GPGSV,3,2,12,15,38,196,46,57,37,254,42,12,24,228,44,14,23,063,36*72
$SDDBS,158.84,f,48.42,M,26.47,F
$GPGSV,3,3,12,13,22,162,38,10,21,300,43,23,17,266,43,44,12,128,36*7F
$GPRMC,160631.000,A,5737.3048,N,16401.3922,W,9.62,180.86,070621,,,A*76
$GPGGA,160632.000,5737.3021,N,16401.3922,W,1,12,0.8,16.9,M,13.3,M,,0000*74
$GPRMC,160632.000,A,5737.3021,N,16401.3922,W,9.47,177.00,070621,,,A*7B
$GPGGA,160633.000,5737.2996,N,16401.3919,W,1,12,0.8,17.0,M,13.3,M,,0000*71
$GPGSA,M,3,24,17,19,28,15,57,12,14,13,10,23,44,1.7,0.8,1.5*34
$SDDBS,157.69,f,48.06,M,26.28,F
$GPRMC,160633.000,A,5737.2996,N,16401.3919,W,9.06,176.24,070621,,,A*74
$GPGGA,160634.000,5737.2971,N,16401.3917,W,1,12,0.8,17.2,M,13.3,M,,0000*73
$SDDBS,158.63,f,48.35,M,26.44,F
$SDDBS,160.23,f,48.84,M,26.70,F
$GPRMC,160634.000,A,5737.2971,N,16401.3917,W,9.09,178.12,070621,,,A*70
$GPGGA,160635.000,5737.2945,N,16401.3914,W,1,12,0.8,17.6,M,13.3,M,,0000*72
$GPGSA,M,3,24,17,19,28,15,57,12,14,13,10,23,44,1.7,0.8,1.5*34
$SDDBS,160.53,f,48.93,M,26.75,F
$GPRMC,160635.000,A,5737.2945,N,16401.3914,W,9.20,174.53,070621,,,A*77
$GPGGA,160636.000,5737.2920,N,16401.3908,W,1,12,0.8,18.0,M,13.3,M,,0000*76
$GPGSV,3,1,12,24,69,266,36,17,43,079,46,19,41,119,44,28,41,065,39*79
$GPGSV,3,2,12,15,38,196,44,57,37,254,41,12,24,228,45,14,23,063,38*7C
$GPGSV,3,3,12,13,22,162,39,10,21,300,44,23,17,266,43,44,12,128,31*7E
$GPRMC,160636.000,A,5737.2920,N,16401.3908,W,9.19,171.99,070621,,,A*73
$GPGGA,160637.000,5737.2895,N,16401.3904,W,1,12,0.8,18.0,M,13.3,M,,0000*74
$GPGSA,M,3,24,17,19,28,15,57,12,14,13,10,23,44,1.7,0.8,1.5*34
$SDDBS,161.28,f,49.16,M,26.88,F
$GPRMC,160637.000,A,5737.2895,N,16401.3904,W,8.97,176.18,070621,,,A*78
$GPGGA,160638.000,5737.2871,N,16401.3904,W,1,12,0.8,17.9,M,13.3,M,,0000*77
$SDDBS,160.24,f,48.84,M,26.71,F
$SDDBS,157.58,f,48.03,M,26.26,F
$GPRMC,160638.000,A,5737.2871,N,16401.3904,W,8.84,184.30,070621,,,A*78
$GPGGA,160639.000,5737.2846,N,16401.3908,W,1,12,0.8,17.9,M,13.3,M,,0000*7E
$GPGSA,M,3,24,17,19,28,15,57,12,14,13,10,23,44,1.7,0.8,1.5*34
$SDDBS,155.36,f,47.35,M,25.89,F
$GPRMC,160639.000,A,5737.2846,N,16401.3908,W,8.90,183.84,070621,,,A*7C
$GPGGA,160640.000,5737.2822,N,16401.3912,W,1,12,0.8,18.3,M,13.3,M,,0000*7C
$SDDBS,156.38,f,47.66,M,26.06,F
$GPRMC,160640.000,A,5737.2822,N,16401.3912,W,9.33,181.24,070621,,,A*7B
$GPGGA,160641.000,5737.2796,N,16401.3913,W,1,12,0.8,18.7,M,13.3,M,,0000*78
$GPGSA,M,3,24,17,19,28,15,57,12,14,13,10,23,44,1.7,0.8,1.5*34
$GPGSV,3,1,12,24,69,266,48,17,43,079,45,19,41,119,44,28,41,065,45*78
$GPGSV,3,2,12,15,38,196,49,57,37,254,41,12,24,228,44,14,23,063,38*70
$GPGSV,3,3,12,13,22,162,38,10,21,300,42,23,17,266,40,44,12,128,38*73
$GPRMC,160641.000,A,5737.2796,N,16401.3913,W,9.32,178.45,070621,,,A*7B
$GPGGA,160642.000,5737.2770,N,16401.3910,W,1,12,0.8,19.2,M,13.3,M,,0000*74
$SDDBS,158.13,f,48.20,M,26.35,F
$GPRMC,160642.000,A,5737.2770,N,16401.3910,W,9.70,173.32,070621,,,A*7E
$GPGGA,160643.000,5737.2743,N,16401.3905,W,1,12,0.8,19.5,M,13.3,M,,0000*76
$GPGSA,M,3,24,17,19,28,15,57,12,14,13,10,23,44,1.7,0.8,1.5*34
$GPRMC,160643.000,A,5737.2743,N,16401.3905,W,9.87,174.85,070621,,,A*78
$SDDBS,158.45,f,48.30,M,26.41,F
$GPGGA,160644.000,5737.2717,N,16401.3902,W,1,12,0.8,19.6,M,13.3,M,,0000*74
$SDDBS,159.11,f,48.50,M,26.52,F
$SDDBS,162.27,f,49.46,M,27.05,F
$GPRMC,160644.000,A,5737.2717,N,16401.3902,W,9.25,179.19,070621,,,A*79
$GPGGA,160645.000,5737.2693,N,16401.3903,W,1,11,0.8,19.7,M,13.3,M,,0000*7B
$GPGSA,M,3,24,17,19,28,15,57,12,14,13,10,23,,1.9,0.8,1.7*38
$SDDBS,165.40,f,50.41,M,27.57,F
$GPRMC,160645.000,A,5737.2693,N,16401.3903,W,8.89,180.77,070621,,,A*7D
$GPGGA,160646.000,5737.2668,N,16401.3904,W,1,11,0.8,19.7,M,13.3,M,,0000*7B
$GPGSV,3,1,12,24,69,266,43,17,43,079,46,19,41,119,43,28,41,065,48*7A
$GPGSV,3,2,12,15,38,196,43,57,37,254,41,12,24,228,45,14,23,063,46*72
$SDDBS,162.30,f,49.47,M,27.05,F
$GPGSV,3,3,12,13,22,162,35,10,21,300,44,23,17,266,41,44,12,128,*72
$GPRMC,160646.000,A,5737.2668,N,16401.3904,W,9.06,181.03,070621,,,A*79
$GPGGA,160647.000,5737.2643,N,16401.3905,W,1,11,0.8,19.8,M,13.3,M,,0000*7D
$GPGSA,M,3,24,17,19,28,15,57,12,14,13,10,23,,1.9,0.8,1.7*38
$GPRMC,160647.000,A,5737.2643,N,16401.3905,W,9.51,180.38,070621,,,A*7B
$GPGGA,160648.000,5737.2617,N,16401.3905,W,1,12,0.8,19.8,M,13.3,M,,0000*70
$GPGSA,M,3,24,17,19,28,15,57,12,14,13,10,23,44,1.7,0.8,1.5*34
$SDDBS,155.75,f,47.47,M,25.96,F
$GPRMC,160648.000,A,5737.2617,N,16401.3905,W,9.12,178.11,070621,,,A*7E
$GPGGA,160649.000,5737.2592,N,16401.3903,W,1,12,0.8,20.1,M,13.3,M,,0000*7A
$SDDBS,152.81,f,46.58,M,25.47,F
$GPRMC,160649.000,A,5737.2592,N,16401.3903,W,9.23,178.19,070621,,,A*7D
$GPGGA,160650.000,5737.2566,N,16401.3902,W,1,12,0.8,20.2,M,13.3,M,,0000*7B
$GPGSA,M,3,24,17,19,28,15,57,12,14,13,10,23,44,1.7,0.8,1.5*34
$SDDBS,157.26,f,47.93,M,26.21,F
$SDDBS,161.77,f,49.31,M,26.96,F
$GPRMC,160650.000,A,5737.2566,N,16401.3902,W,9.73,178.69,070621,,,A*7D
$GPGGA,160651.000,5737.2539,N,16401.3899,W,1,12,0.8,20.5,M,13.3,M,,0000*74
$GPGSV,3,1,12,24,69,266,41,17,43,079,45,19,41,119,44,28,41,065,41*75
$GPGSV,3,2,12,15,38,196,46,57,37,254,42,12,24,228,45,14,23,063,41*73
$SDDBS,161.49,f,49.22,M,26.91,F
$GPGSV,3,3,12,13,22,162,33,10,21,300,44,23,17,266,41,44,12,128,39*7E
$GPRMC,160651.000,A,5737.2539,N,16401.3899,W,9.43,175.43,070621,,,A*73
$GPGGA,160652.000,5737.2514,N,16401.3896,W,1,12,0.8,21.0,M,13.3,M,,0000*73
$GPGSA,M,3,24,17,19,28,15,57,12,14,13,10,23,44,1.7,0.8,1.5*34
$SDDBS,158.17,f,48.21,M,26.36,F
$GPRMC,160652.000,A,5737.2514,N,16401.3896,W,9.29,177.00,070621,,,A*79
$GPGGA,160653.000,5737.2488,N,16401.3896,W,1,12,0.8,21.3,M,13.3,M,,0000*75
$GPRMC,160653.000,A,5737.2488,N,16401.3896,W,9.65,180.93,070621,,,A*76
$GPGGA,160654.000,5737.2462,N,16401.3898,W,1,12,0.8,21.4,M,13.3,M,,0000*7F
$GPGSA,M,3,24,17,19,28,15,57,12,14,13,10,23,44,1.7,0.8,1.5*34
$SDDBS,157.75,f,48.08,M,26.29,F
$GPRMC,160654.000,A,5737.2462,N,16401.3898,W,9.66,182.82,070621,,,A*7A
$GPGGA,160655.000,5737.2436,N,16401.3901,W,1,12,0.8,21.4,M,13.3,M,,0000*7E
$SDDBS,159.92,f,48.74,M,26.65,F
$SDDBS,160.53,f,48.93,M,26.76,F
$GPRMC,160655.000,A,5737.2436,N,16401.3901,W,9.16,181.88,070621,,,A*75
$GPGGA,160656.000,5737.2410,N,16401.3902,W,1,12,0.8,21.6,M,13.3,M,,0000*78
$GPGSA,M,3,24,17,19,28,15,57,12,14,13,10,23,44,1.7,0.8,1.5*34
$GPGSV,3,1,12,24,70,265,49,17,43,077,45,19,42,117,44,28,40,065,46*73
$GPGSV,3,2,12,15,37,196,46,57,36,254,42,12,26,228,44,14,22,063,40*7E
$SDDBS,159.36,f,48.57,M,26.56,F
$GPGSV,3,3,12,13,21,163,32,10,21,299,44,23,16,265,41,44,12,128,38*7F
$GPRMC,160656.000,A,5737.2410,N,16401.3902,W,9.27,179.87,070621,,,A*7B
$GPGGA,160657.000,5737.2384,N,16401.3901,W,1,12,0.8,21.7,M,13.3,M,,0000*71
$SDDBS,159.14,f,48.51,M,26.52,F
$GPRMC,160657.000,A,5737.2384,N,16401.3901,W,9.63,176.80,070621,,,A*7B
$GPGGA,160658.000,5737.2358,N,16401.3898,W,1,12,0.8,21.9,M,13.3,M,,0000*70
$GPGSA,M,3,24,17,19,28,15,57,12,14,13,10,23,44,1.7,0.8,1.5*34
$SDDBS,158.54,f,48.32,M,26.42,F
$GPRMC,160658.000,A,5737.2358,N,16401.3898,W,9.34,174.51,070621,,,A*78
$GPGGA,160659.000,5737.2332,N,16401.3894,W,1,12,0.8,22.1,M,13.3,M,,0000*7A
$GPRMC,160659.000,A,5737.2332,N,16401.3894,W,9.14,176.04,070621,,,A*79
$GPGGA,160700.000,5737.2307,N,16401.3895,W,1,12,0.8,22.3,M,13.3,M,,0000*72
$GPGSA,M,3,24,17,19,28,15,57,12,14,13,10,23,44,1.7,0.8,1.5*34
$SDDBS,159.17,f,48.52,M,26.53,F
$GPRMC,160700.000,A,5737.2307,N,16401.3895,W,9.95,182.16,070621,,,A*72
$GPGGA,160701.000,5737.2278,N,16401.3898,W,1,12,0.8,22.1,M,13.3,M,,0000*75
$GPGSV,3,1,12,24,70,265,41,17,43,077,46,19,42,117,44,28,40,065,40*7E
$SDDBS,159.30,f,48.56,M,26.55,F
$SDDBS,159.27,f,48.55,M,26.55,F
$GPGSV,3,2,12,15,37,196,46,57,36,254,42,12,26,228,44,14,22,063,40*7E
$GPGSV,3,3,12,13,21,163,33,10,21,299,45,23,16,265,42,44,12,128,37*73
$GPRMC,160701.000,A,5737.2278,N,16401.3898,W,10.34,183.49,070621,,,A*4F
$GPGGA,160702.000,5737.2252,N,16401.3901,W,1,12,0.8,21.8,M,13.3,M,,0000*75
$GPGSA,M,3,24,17,19,28,15,57,12,14,13,10,23,44,1.7,0.8,1.5*34
$SDDBS,158.26,f,48.24,M,26.38,F
$GPRMC,160702.000,A,5737.2252,N,16401.3901,W,8.77,181.73,070621,,,A*70
$GPGGA,160703.000,5737.2229,N,16401.3901,W,1,12,0.8,22.0,M,13.3,M,,0000*73
$SDDBS,158.32,f,48.26,M,26.39,F
$GPRMC,160703.000,A,5737.2229,N,16401.3901,W,7.99,181.71,070621,,,A*70
$GPGGA,160704.000,5737.2204,N,16401.3899,W,1,12,0.8,22.1,M,13.3,M,,0000*7A
$GPGSA,M,3,24,17,19,28,15,57,12,14,13,10,23,44,1.7,0.8,1.5*34
$GPRMC,160704.000,A,5737.2204,N,16401.3899,W,10.23,175.07,070621,,,A*45
$GPGGA,160705.000,5737.2176,N,16401.3894,W,1,12,0.8,21.7,M,13.3,M,,0000*75
$SDDBS,159.07,f,48.48,M,26.51,F
$GPRMC,160705.000,A,5737.2176,N,16401.3894,W,9.83,176.02,070621,,,A*7B
$GPGGA,160706.000,5737.2150,N,16401.3891,W,1,12,0.8,21.1,M,13.3,M,,0000*71
$GPGSA,M,3,24,17,19,28,15,57,12,14,13,10,23,44,1.7,0.8,1.5*34
$GPGSV,3,1,12,24,70,265,40,17,43,077,46,19,42,117,44,28,40,065,46*79
$SDDBS,160.04,f,48.78,M,26.67,F
$GPGSV,3,2,12,15,37,196,47,57,36,254,41,12,26,228,44,14,22,063,42*7E
$GPGSV,3,3,12,13,21,163,37,10,21,299,44,23,16,265,42,44,12,128,36*77
$GPRMC,160706.000,A,5737.2150,N,16401.3891,W,9.12,177.71,070621,,,A*74
$GPGGA,160707.000,5737.2125,N,16401.3893,W,1,12,0.8,20.9,M,13.3,M,,0000*79
$SDDBS,158.66,f,48.36,M,26.44,F
$SDDBS,156.45,f,47.69,M,26.08,F
$GPRMC,160707.000,A,5737.2125,N,16401.3893,W,9.02,185.67,070621,,,A*7E
$GPGGA,160708.000,5737.2100,N,16401.3899,W,1,12,0.8,20.9,M,13.3,M,,0000*7B
$GPGSA,M,3,24,17,19,28,15,57,12,14,13,10,23,44,1.7,0.8,1.5*34
$SDDBS,156.67,f,47.75,M,26.11,F
$GPRMC,160708.000,A,5737.2100,N,16401.3899,W,9.35,188.57,070621,,,A*76
$GPGGA,160709.000,5737.2074,N,16401.3902,W,1,12,0.8,21.0,M,13.3,M,,0000*73
$SDDBS,161.03,f,49.08,M,26.84,F
$GPRMC,160709.000,A,5737.2074,N,16401.3902,W,9.34,178.45,070621,,,A*7B
$GPGGA,160710.000,5737.2048,N,16401.3897,W,1,12,0.8,21.1,M,13.3,M,,0000*78
$GPGSA,M,3,24,17,19,28,15,57,12,14,13,10,23,44,1.7,0.8,1.5*34
$GPRMC,160710.000,A,5737.2048,N,16401.3897,W,9.68,172.04,070621,,,A*77
$GPGGA,160711.000,5737.2022,N,16401.3890,W,1,12,0.8,20.7,M,13.3,M,,0000*75
$GPGSV,3,1,12,24,70,265,44,17,43,077,45,19,42,117,45,28,40,065,46*7F
$SDDBS,164.26,f,50.07,M,27.38,F
$GPGSV,3,2,12,15,37,196,49,57,36,254,42,12,26,228,44,14,22,063,42*73
$GPGSV,3,3,12,13,21,163,38,10,21,299,44,23,16,265,41,44,12,128,35*78
$GPRMC,160711.000,A,5737.2022,N,16401.3890,W,9.96,174.63,070621,,,A*7B
$GPGGA,160712.000,5737.1996,N,16401.3888,W,1,12,0.8,20.3,M,13.3,M,,0000*7E
$GPGSA,M,3,24,17,19,28,15,57,12,14,13,10,23,44,1.7,0.8,1.5*34
$SDDBS,162.70,f,49.59,M,27.12,F
$SDDBS,157.78,f,48.09,M,26.30,F
$GPRMC,160712.000,A,5737.1996,N,16401.3888,W,8.90,179.75,070621,,,A*79
$GPGGA,160713.000,5737.1971,N,16401.3889,W,1,12,0.8,20.2,M,13.3,M,,0000*76
$SDDBS,155.20,f,47.31,M,25.87,F
$GPRMC,160713.000,A,5737.1971,N,16401.3889,W,8.97,184.08,070621,,,A*7F
$GPGGA,160714.000,5737.1945,N,16401.3893,W,1,12,0.8,20.0,M,13.3,M,,0000*7F
$GPGSA,M,3,24,17,19,28,15,57,12,14,13,10,23,44,1.7,0.8,1.5*34
$SDDBS,156.40,f,47.67,M,26.07,F
$GPRMC,160714.000,A,5737.1945,N,16401.3893,W,9.70,184.98,070621,,,A*75
$GPGGA,160715.000,5737.1919,N,16401.3895,W,1,12,0.8,20.1,M,13.3,M,,0000*70
$SDDBS,158.00,f,48.16,M,26.33,F
$GPRMC,160715.000,A,5737.1919,N,16401.3895,W,9.38,181.11,070621,,,A*73
$GPGGA,160716.000,5737.1893,N,16401.3893,W,1,12,0.8,20.4,M,13.3,M,,0000*73
$GPGSA,M,3,24,17,19,28,15,57,12,14,13,10,23,44,1.7,0.8,1.5*34
$GPGSV,3,1,12,24,70,265,49,17,43,077,45,19,42,117,44,28,40,065,43*76
$GPGSV,3,2,12,15,37,196,45,57,36,254,42,12,26,228,44,14,22,063,41*7C
$GPGSV,3,3,12,13,21,163,38,10,21,299,44,23,16,265,42,44,12,128,38*76
$GPRMC,160716.000,A,5737.1893,N,16401.3893,W,9.20,174.53,070621,,,A*70
$GPGGA,160717.000,5737.1868,N,16401.3887,W,1,12,0.8,20.6,M,13.3,M,,0000*71
$SDDBS,158.05,f,48.17,M,26.34,F
$GPRMC,160717.000,A,5737.1868,N,16401.3887,W,9.37,171.16,070621,,,A*72
$GPGGA,160718.000,5737.1841,N,16401.3881,W,1,12,0.8,20.7,M,13.3,M,,0000*72
$GPGSA,M,3,24,17,19,28,15,57,12,14,13,10,23,44,1.7,0.8,1.5*34
$SDDBS,159.82,f,48.71,M,26.64,F
$SDDBS,161.88,f,49.34,M,26.98,F
$GPRMC,160718.000,A,5737.1841,N,16401.3881,W,9.86,174.73,070621,,,A*7C
$GPGGA,160719.000,5737.1815,N,16401.3879,W,1,12,0.8,20.5,M,13.3,M,,0000*77
$SDDBS,162.33,f,49.48,M,27.06,F
$GPRMC,160719.000,A,5737.1815,N,16401.3879,W,9.73,180.56,070621,,,A*7D
$GPGGA,160720.000,5737.1789,N,16401.3882,W,1,12,0.8,20.4,M,13.3,M,,0000*72
$GPGSA,M,3,24,17,19,28,15,57,12,14,13,10,23,44,1.7,0.8,1.5*34
$SDDBS,159.11,f,48.50,M,26.52,F
$GPRMC,160720.000,A,5737.1789,N,16401.3882,W,9.12,183.91,070621,,,A*76
$GPGGA,160721.000,5737.1763,N,16401.3885,W,1,12,0.8,20.3,M,13.3,M,,0000*77
$GPGSV,3,1,12,24,70,265,44,17,43,077,45,19,42,117,43,28,40,065,44*7B
$GPGSV,3,2,12,15,37,196,45,57,36,254,42,12,26,228,44,14,22,063,41*7C
$GPGSV,3,3,12,13,21,163,42,10,21,299,44,23,16,265,40,44,12,128,38*79
$GPRMC,160721.000,A,5737.1763,N,16401.3885,W,9.39,183.72,070621,,,A*70
$GPGGA,160722.000,5737.1737,N,16401.3888,W,1,12,0.8,20.2,M,13.3,M,,0000*79
$GPGSA,M,3,24,17,19,28,15,57,12,14,13,10,23,44,1.7,0.8,1.5*34
$SDDBS,156.60,f,47.73,M,26.10,F
$GPRMC,160722.000,A,5737.1737,N,16401.3888,W,9.36,182.36,070621,,,A*71
$GPGGA,160723.000,5737.1711,N,16401.3889,W,1,12,0.8,20.3,M,13.3,M,,0000*7C
$SDDBS,158.29,f,48.25,M,26.38,F
$GPRMC,160723.000,A,5737.1711,N,16401.3889,W,9.28,178.71,070621,,,A*7C
$GPGGA,160724.000,5737.1685,N,16401.3887,W,1,12,0.8,20.4,M,13.3,M,,0000*7E
$GPGSA,M,3,24,17,19,28,15,57,12,14,13,10,23,44,1.7,0.8,1.5*34
$SDDBS,160.17,f,48.82,M,26.69,F
$SDDBS,159.93,f,48.75,M,26.65,F
$GPRMC,160724.000,A,5737.1685,N,16401.3887,W,9.69,174.87,070621,,,A*79
$GPGGA,160725.000,5737.1657,N,16401.3882,W,1,12,0.8,20.4,M,13.3,M,,0000*75
$SDDBS,158.82,f,48.41,M,26.47,F
$GPRMC,160725.000,A,5737.1657,N,16401.3882,W,9.83,174.36,070621,,,A*7C
$GPGGA,160726.000,5737.1632,N,16401.3878,W,1,12,0.8,20.6,M,13.3,M,,0000*72
$GPGSA,M,3,24,17,19,28,15,57,12,14,13,10,23,44,1.7,0.8,1.5*34
$GPGSV,3,1,12,24,70,265,40,17,43,077,45,19,42,117,44,28,40,065,44*78
$GPGSV,3,2,12,15,37,196,48,57,36,254,42,12,26,228,44,14,22,063,40*70
$SDDBS,157.35,f,47.96,M,26.23,F
$GPGSV,3,3,12,13,21,163,37,10,21,299,44,23,16,265,44,44,12,128,33*74
$GPRMC,160726.000,A,5737.1632,N,16401.3878,W,8.95,175.66,070621,,,A*7B
$GPGGA,160727.000,5737.1606,N,16401.3875,W,1,12,0.8,20.8,M,13.3,M,,0000*77
$GPRMC,160727.000,A,5737.1606,N,16401.3875,W,9.48,177.19,070621,,,A*7B
$GPGGA,160728.000,5737.1579,N,16401.3876,W,2,10,0.8,20.8,M,13.3,M,6.0,0000*59
$GPGSA,M,3,24,17,28,15,12,14,13,10,23,44,,,1.7,0.8,1.5*3E
$SDDBS,156.60,f,47.73,M,26.10,F
$GPRMC,160728.000,A,5737.1579,N,16401.3876,W,9.88,184.27,070621,,,D*74
$GPGGA,160729.000,5737.1552,N,16401.3878,W,2,09,0.9,20.8,M,13.3,M,7.0,0000*57
$GPGSA,M,3,24,17,28,15,12,14,13,10,23,,,,1.9,0.9,1.7*33
$SDDBS,157.30,f,47.95,M,26.22,F
$SDDBS,159.71,f,48.68,M,26.62,F
$GPRMC,160729.000,A,5737.1552,N,16401.3878,W,9.98,182.11,070621,,,D*70
$GPGGA,160730.000,5737.1525,N,16401.3878,W,2,09,0.9,21.0,M,13.3,M,8.0,0000*59
$SDDBS,162.26,f,49.46,M,27.04,F
$GPRMC,160730.000,A,5737.1525,N,16401.3878,W,8.94,178.60,070621,,,D*76
$GPGGA,160731.000,5737.1501,N,16401.3875,W,2,09,0.9,21.4,M,13.3,M,9.0,0000*56
$GPGSA,M,3,24,17,28,15,12,14,13,10,23,,,,1.9,0.9,1.7*33
$GPGSV,3,1,12,24,70,265,49,17,43,077,46,28,40,065,42,15,37,196,46*71
$GPGSV,3,2,12,12,26,228,45,14,22,063,36,13,21,163,38,10,21,299,44*7E
$SDDBS,162.63,f,49.57,M,27.11,F
$GPGSV,3,3,12,23,16,265,43,19,42,117,44,57,36,254,42,42,08,240,*79
$GPRMC,160731.000,A,5737.1501,N,16401.3875,W,8.72,174.00,070621,,,D*7E
$GPGGA,160732.000,5737.1475,N,16401.3868,W,2,09,0.9,21.7,M,13.3,M,10.0,0000*60
$GPRMC,160732.000,A,5737.1475,N,16401.3868,W,9.67,171.47,070621,,,D*70
$GPGGA,160733.000,5737.1448,N,16401.3862,W,2,09,0.9,21.7,M,13.3,M,11.0,0000*64
$GPGSA,M,3,24,17,28,15,12,14,13,10,23,,,,1.9,0.9,1.7*33
$SDDBS,161.05,f,49.09,M,26.84,F
$GPRMC,160733.000,A,5737.1448,N,16401.3862,W,9.56,175.07,070621,,,D*77
$GPGGA,160734.000,5737.1422,N,16401.3859,W,2,09,0.9,21.9,M,13.3,M,12.0,0000*6A
$SDDBS,159.73,f,48.69,M,26.62,F
$SDDBS,157.38,f,47.97,M,26.23,F
$GPRMC,160734.000,A,5737.1422,N,16401.3859,W,9.36,179.25,070621,,,D*7E
$GPGGA,160735.000,5737.1395,N,16401.3860,W,2,09,0.9,22.0,M,13.3,M,13.0,0000*61
$GPGSA,M,3,24,17,28,15,12,14,13,10,23,,,,1.9,0.9,1.7*33
$SDDBS,155.24,f,47.32,M,25.87,F
$GPRMC,160735.000,A,5737.1395,N,16401.3860,W,9.74,183.65,070621,,,D*79
$GPGGA,160736.000,5737.1368,N,16401.3864,W,2,09,0.9,22.0,M,13.3,M,14.0,0000*63
$GPGSV,3,1,12,24,70,265,43,17,43,077,46,28,40,065,43,15,37,196,42*7E
$GPGSV,3,2,12,12,26,228,44,14,22,063,41,13,21,163,35,10,21,299,43*75
$SDDBS,155.80,f,47.49,M,25.97,F
$GPGSV,3,3,12,23,16,265,43,19,42,117,43,57,36,254,42,42,08,240,*7E
$GPRMC,160736.000,A,5737.1368,N,16401.3864,W,9.70,185.21,070621,,,D*7E
$GPGGA,160737.000,5737.1342,N,16401.3867,W,2,09,0.9,22.2,M,13.3,M,15.0,0000*6A
$GPGSA,M,3,24,17,28,15,12,14,13,10,23,,,,1.9,0.9,1.7*33
$GPRMC,160737.000,A,5737.1342,N,16401.3867,W,9.16,182.25,070621,,,D*77
$GPGGA,160738.000,5737.1316,N,16401.3866,W,2,09,0.9,22.4,M,13.3,M,16.0,0000*60
$SDDBS,159.27,f,48.54,M,26.54,F
$GPRMC,160738.000,A,5737.1316,N,16401.3866,W,9.41,175.94,070621,,,D*78
$GPGGA,160739.000,5737.1289,N,16401.3862,W,2,09,0.9,22.4,M,13.3,M,17.0,0000*63
$GPGSA,M,3,24,17,28,15,12,14,13,10,23,,,,1.9,0.9,1.7*33
$SDDBS,163.31,f,49.78,M,27.22,F
$GPRMC,160739.000,A,5737.1289,N,16401.3862,W,10.27,175.81,070621,,,D*46
$GPGGA,160740.000,5737.1262,N,16401.3860,W,2,09,0.9,22.2,M,13.3,M,18.0,0000*63
$SDDBS,162.67,f,49.58,M,27.11,F
$SDDBS,158.49,f,48.31,M,26.42,F
$GPRMC,160740.000,A,5737.1262,N,16401.3860,W,9.52,178.93,070621,,,D*7B
$GPGGA,160741.000,5737.1237,N,16401.3860,W,1,11,0.8,22.1,M,13.3,M,,0000*7D
$GPGSA,M,3,24,17,19,28,15,57,12,14,13,10,23,,1.9,0.8,1.7*38
$GPGSV,3,1,12,24,70,265,48,17,43,077,45,19,42,117,43,28,40,065,43*70
$GPGSV,3,2,12,15,37,196,49,57,36,254,43,12,26,228,44,14,22,063,38*7F
$SDDBS,156.77,f,47.78,M,26.13,F
$GPGSV,3,3,12,13,21,163,32,10,21,299,43,23,16,265,40,42,08,240,*72
$GPRMC,160741.000,A,5737.1237,N,16401.3860,W,9.02,177.38,070621,,,A*74
$GPGGA,160742.000,5737.1211,N,16401.3857,W,1,11,0.8,22.4,M,13.3,M,,0000*7B
$SDDBS,159.17,f,48.51,M,26.53,F
$GPRMC,160742.000,A,5737.1211,N,16401.3857,W,9.80,175.44,070621,,,A*74
$GPGGA,160743.000,5737.1184,N,16401.3854,W,1,11,0.8,22.6,M,13.3,M,,0000*74
$GPGSA,M,3,24,17,19,28,15,57,12,14,13,10,23,,1.9,0.8,1.7*38
$GPRMC,160743.000,A,5737.1184,N,16401.3854,W,9.77,175.29,070621,,,A*7A
$GPGGA,160744.000,5737.1158,N,16401.3851,W,1,11,0.8,22.8,M,13.3,M,,0000*79
$SDDBS,160.52,f,48.93,M,26.75,F
$GPRMC,160744.000,A,5737.1158,N,16401.3851,W,9.17,176.74,070621,,,A*74
$GPGGA,160745.000,5737.1132,N,16401.3851,W,1,11,0.8,23.0,M,13.3,M,,0000*7D
$GPGSA,M,3,24,17,19,28,15,57,12,14,13,10,23,,1.9,0.8,1.7*38
$SDDBS,159.46,f,48.60,M,26.58,F
$SDDBS,158.63,f,48.35,M,26.44,F
$GPRMC,160745.000,A,5737.1132,N,16401.3851,W,9.89,181.96,070621,,,A*7A
$GPGGA,160746.000,5737.1105,N,16401.3859,W,1,11,0.8,22.7,M,13.3,M,,0000*74
$GPGSV,3,1,12,24,70,265,46,17,43,077,46,19,42,117,43,28,40,065,43*7D
$SDDBS,158.01,f,48.16,M,26.33,F
$GPGSV,3,2,12,15,37,196,41,57,36,254,43,12,26,228,44,14,22,063,38*77
$GPGSV,3,3,12,13,21,163,39,10,21,299,44,23,16,265,42,42,08,240,*7C
$GPRMC,160746.000,A,5737.1105,N,16401.3859,W,10.04,190.30,070621,,,A*44
$GPGGA,160747.000,5737.1079,N,16401.3869,W,1,11,0.8,22.3,M,13.3,M,,0000*78
$GPGSA,M,3,24,17,19,28,15,57,12,14,13,10,23,,1.9,0.8,1.7*38
$SDDBS,157.39,f,47.97,M,26.23,F
$GPRMC,160747.000,A,5737.1079,N,16401.3869,W,9.72,187.95,070621,,,A*7C
$GPGGA,160748.000,5737.1054,N,16401.3870,W,1,11,0.8,22.3,M,13.3,M,,0000*70
$SDDBS,158.82,f,48.41,M,26.47,F
$GPRMC,160748.000,A,5737.1054,N,16401.3870,W,8.84,175.15,070621,,,A*79
$GPGGA,160749.000,5737.1029,N,16401.3862,W,1,11,0.8,22.5,M,13.3,M,,0000*7E
$GPGSA,M,3,24,17,19,28,15,57,12,14,13,10,23,,1.9,0.8,1.7*38
$GPRMC,160749.000,A,5737.1029,N,16401.3862,W,8.78,169.83,070621,,,A*70
$GPGGA,160750.000,5737.1005,N,16401.3853,W,1,11,0.8,22.5,M,13.3,M,,0000*7A
$SDDBS,160.35,f,48.88,M,26.73,F
$GPRMC,160750.000,A,5737.1005,N,16401.3853,W,9.60,171.26,070621,,,A*7A
$GPGGA,160751.000,5737.0977,N,16401.3847,W,1,11,0.8,21.4,M,13.3,M,,0000*71
$GPGSA,M,3,24,17,19,28,15,57,12,14,13,10,23,,1.9,0.8,1.7*38
$GPGSV,3,1,12,24,70,265,44,17,43,077,47,19,42,117,44,28,40,065,44*7E
$SDDBS,159.11,f,48.50,M,26.52,F
$SDDBS,157.68,f,48.06,M,26.28,F
$GPGSV,3,2,12,15,37,196,43,57,36,254,42,12,26,228,45,14,22,063,40*7A
$GPGSV,3,3,12,13,21,163,38,10,21,299,43,23,16,265,42,42,08,240,*7A
$GPRMC,160751.000,A,5737.0977,N,16401.3847,W,9.67,178.07,070621,,,A*7E
$GPGGA,160752.000,5737.0950,N,16401.3846,W,1,11,0.8,20.7,M,13.3,M,,0000*74
$GPRMC,160752.000,A,5737.0950,N,16401.3846,W,8.98,182.66,070621,,,A*7A
$SDDBS,158.63,f,48.35,M,26.44,F
$GPGGA,160753.000,5737.0924,N,16401.3851,W,1,11,0.8,20.4,M,13.3,M,,0000*73
$GPGSA,M,3,24,17,19,28,15,57,12,14,13,10,23,,1.9,0.8,1.7*38
$SDDBS,160.62,f,48.96,M,26.77,F
$GPRMC,160753.000,A,5737.0924,N,16401.3851,W,9.34,188.53,070621,,,A*75
$GPGGA,160754.000,5737.0897,N,16401.3858,W,1,11,0.8,19.6,M,13.3,M,,0000*7C
$GPRMC,160754.000,A,5737.0897,N,16401.3858,W,10.30,188.83,070621,,,A*43
$GPGGA,160755.000,5737.0869,N,16401.3865,W,1,11,0.8,19.1,M,13.3,M,,0000*75
$GPGSA,M,3,24,17,19,28,15,57,12,14,13,10,23,,1.9,0.8,1.7*38
$SDDBS,160.84,f,49.03,M,26.81,F
$GPRMC,160755.000,A,5737.0869,N,16401.3865,W,9.63,186.47,070621,,,A*75
$GPGGA,160756.000,5737.0843,N,16401.3866,W,1,11,0.8,18.8,M,13.3,M,,0000*75
$GPGSV,3,1,12,24,70,265,46,17,43,077,46,19,42,117,44,28,40,065,44*7D
$GPGSV,3,2,12,15,37,196,43,57,36,254,41,12,26,228,45,14,22,063,40*79
$SDDBS,158.26,f,48.24,M,26.38,F
$GPGSV,3,3,12,13,21,163,38,10,21,299,34,23,16,265,42,42,08,240,*7A
$GPRMC,160756.000,A,5737.0843,N,16401.3866,W,8.70,177.52,070621,,,A*74
$GPGGA,160757.000,5737.0818,N,16401.3860,W,1,11,0.8,18.7,M,13.3,M,,0000*73
$GPGSA,M,3,24,17,19,28,15,57,12,14,13,10,23,,1.9,0.8,1.7*38
$SDDBS,155.71,f,47.46,M,25.95,F
$SDDBS,156.04,f,47.56,M,26.01,F
$GPRMC,160757.000,A,5737.0818,N,16401.3860,W,9.31,170.73,070621,,,A*7D
$GPGGA,160758.000,5737.0791,N,16401.3850,W,1,11,0.8,18.9,M,13.3,M,,0000*7F
$SDDBS,159.86,f,48.73,M,26.64,F
$GPRMC,160758.000,A,5737.0791,N,16401.3850,W,10.27,169.32,070621,,,A*4D
$GPGGA,160759.000,5737.0762,N,16401.3841,W,1,11,0.8,18.6,M,13.3,M,,0000*7D
$GPGSA,M,3,24,17,19,28,15,57,12,14,13,10,23,,1.9,0.8,1.7*38
